lat,lng,franchise,store
37.4782316,127.1193703,starbucks,스타벅스 가든파이브
37.4948828,127.1188272,starbucks,스타벅스 가락본동점
37.4943071,127.121397,starbucks,스타벅스 가락시장역점
37.4795501,126.8872959,starbucks,스타벅스 가산그레이트
37.48089,126.8825735,starbucks,스타벅스 가산디지털단지역
37.4798434,126.8824217,starbucks,스타벅스 가산디지털점
37.47717,126.883859,starbucks,스타벅스 가산브이타워
37.4809055,126.8809408,starbucks,스타벅스 가산에스케이점
37.5601456,126.8554667,starbucks,스타벅스 가양역사거리점
37.561561,126.8532562,starbucks,스타벅스 가양역점
37.5648322,126.8342406,starbucks,스타벅스 가양이마트점
37.5847052,126.9229346,starbucks,스타벅스 가재울뉴타운점
37.5001667,127.0256033,starbucks,스타벅스 강남2점
37.5036697,127.0243327,starbucks,스타벅스 강남교보타워R점
37.5182675,127.0459628,starbucks,스타벅스 강남구청정문점
37.5135304,127.0315341,starbucks,스타벅스 강남논현점
37.5135304,127.0315341,starbucks,스타벅스 강남대로논현R점
37.5147743,127.0195876,starbucks,스타벅스 강남대로신사점
37.5030938,127.025579,starbucks,스타벅스 강남대로점
37.4955306,127.0277529,starbucks,스타벅스 강남삼성타운점 
37.4672186,127.10001,starbucks,스타벅스 강남세곡점
37.5025087,127.0241166,starbucks,스타벅스 강남에비뉴
37.502024,127.026671,starbucks,스타벅스 강남오거리점
37.4923816,127.0309489,starbucks,스타벅스 강남우성점
37.4979267,127.0260564,starbucks,스타벅스 강남GT타워점
37.497853,127.028587,starbucks,스타벅스 강남R점
37.5292874,127.1238485,starbucks,스타벅스 강동구청DT점
37.558248,127.1304539,starbucks,스타벅스 강동암사DT
37.5360487,127.1330387,starbucks,스타벅스 강동역점
37.5363682,127.0932579,starbucks,스타벅스 강변역점
37.5683585,126.9674846,starbucks,스타벅스 강북삼성병원1층점
37.5683585,126.9674846,starbucks,스타벅스 강북삼성병원점
37.5548949,126.8539639,starbucks,스타벅스 강서구청사거리점
37.5592805,126.8393255,starbucks,스타벅스 강서NC점
37.5113961,127.0939363,starbucks,스타벅스 갤러리아 팰리스점
37.5407625,127.0793428,starbucks,스타벅스 건국대점
37.5407625,127.0793428,starbucks,스타벅스 건국대점
37.5385389,127.0730169,starbucks,스타벅스 건대스타씨티점
37.5406354,127.0707535,starbucks,스타벅스 건대후문
37.56368,126.9646,starbucks,스타벅스 경기대점
37.5755477,126.9802257,starbucks,스타벅스 경복궁사거리점
37.5771547,126.9725464,starbucks,스타벅스 경복궁역점
37.5712378,126.9681688,starbucks,스타벅스 경희궁로점
37.5915221,127.0520209,starbucks,스타벅스 경희대삼거리점
37.592892,127.052752,starbucks,스타벅스 경희대점
37.5838912,127.0296926,starbucks,스타벅스 고대점
37.545937,126.952967,starbucks,스타벅스 공덕
37.542717,126.950624,starbucks,스타벅스 공덕오거리점
37.6263614,127.0722671,starbucks,스타벅스 공릉역점
37.6206884,127.0743116,starbucks,스타벅스 공릉DT점
37.4792788,126.9526694,starbucks,스타벅스 관악서울대입구R점
37.5473667,127.106064,starbucks,스타벅스 광나루점
37.6231479,127.0607009,starbucks,스타벅스 광운대점
37.5699357,126.9783077,starbucks,스타벅스 광화문우체국
37.5704045,126.9791015,starbucks,스타벅스 광화문D타워점
37.4963206,127.0133771,starbucks,스타벅스 교대법원점
37.4942069,127.0139908,starbucks,스타벅스 교대역점
37.4923513,127.0142164,starbucks,스타벅스 교대점
37.4968998,126.8629898,starbucks,스타벅스 구로고척점
37.4856641,126.8955021,starbucks,스타벅스 구로디지털로점
37.4834598,126.8968488,starbucks,스타벅스 구로디지털타워점
37.4954031,126.887369,starbucks,스타벅스 구로에이스점
37.48174,126.89344,starbucks,스타벅스 구로하이엔드점
37.4831293,126.8988591,starbucks,스타벅스 구로호텔점
37.5012056,126.8827953,starbucks,스타벅스 구로NC점
37.6116886,126.9176414,starbucks,스타벅스 구산역점
37.5369207,127.0840156,starbucks,스타벅스 구의역점
37.5453173,127.0872174,starbucks,스타벅스 구의DT점
37.6396723,126.918779,starbucks,스타벅스 구파발사거리
37.6344395,126.9188524,starbucks,스타벅스 구파발역점
37.501965,127.0302469,starbucks,스타벅스 국기원사거리점
37.5664597,127.0063505,starbucks,스타벅스 국립중앙의료원점
37.5304488,126.919561,starbucks,스타벅스 국회대로점
37.5278274,126.91686,starbucks,스타벅스 국회의사당역점
37.5575666,127.079334,starbucks,스타벅스 군자사거리점
37.5569511,127.0790881,starbucks,스타벅스 군자역점
37.5544879,127.144395,starbucks,스타벅스 굽은다리역점
37.4559887,126.8956711,starbucks,스타벅스 금천구청역점
37.468955,126.895603,starbucks,스타벅스 금천독산점
37.4488601,126.903246,starbucks,스타벅스 금천시흥점
37.5479939,127.0153343,starbucks,스타벅스 금호역점
37.5386789,127.1400495,starbucks,스타벅스 길동역점
37.6019694,127.0252982,starbucks,스타벅스 길음역점
37.532287,126.8460833,starbucks,스타벅스 까치산역점
37.4776649,126.9611926,starbucks,스타벅스 낙성대역점
37.476126,126.965002,starbucks,스타벅스 낙성대DT점
37.5743455,126.9188972,starbucks,스타벅스 남가좌사거리점
37.4843511,127.0142183,starbucks,스타벅스 남부터미널2점
37.4850164,127.0169155,starbucks,스타벅스 남부터미널점
37.55854,126.97546,starbucks,스타벅스 남산단암점
37.4841211,126.9726489,starbucks,스타벅스 남성역점
37.5428345,126.9722825,starbucks,스타벅스 남영동
37.5546422,126.834636,starbucks,스타벅스 내발산점
37.4900694,126.9924381,starbucks,스타벅스 내방역점
37.5131217,126.9469866,starbucks,스타벅스 노량진동점
37.5133481,126.9408863,starbucks,스타벅스 노량진역점
37.6610534,127.0580043,starbucks,스타벅스 노원마들역점
37.6547298,127.0600029,starbucks,스타벅스 노원역점
37.6545399,127.0629813,starbucks,스타벅스 노원케이티(KT)점
37.5110261,127.0217921,starbucks,스타벅스 논현역사거리점
37.511596,127.020654,starbucks,스타벅스 논현역점
37.5684656,127.0511062,starbucks,스타벅스 답십리역점
37.5331208,126.9038043,starbucks,스타벅스 당산대로점
37.533948,126.9010796,starbucks,스타벅스 당산역사거리점
37.5350961,126.8999555,starbucks,스타벅스 당산점
37.556585,126.97513,starbucks,스타벅스 대우재단빌딩점
37.503314,127.058851,starbucks,스타벅스 대치사거리점
37.4994914,127.0610527,starbucks,스타벅스 대치삼성프라자점
37.4989533,127.0602651,starbucks,스타벅스 대치은마사거리점
37.4994914,127.0610527,starbucks,스타벅스 대치재경빌딩R
37.4984818,127.052066,starbucks,스타벅스 대치한티점
37.5769696,127.0020331,starbucks,스타벅스 대학로점
37.5606707,126.9737639,starbucks,스타벅스 대한상공회의소R점
37.5258975,126.9284261,starbucks,스타벅스 더현대서울(B2)R
37.492877,127.041419,starbucks,스타벅스 도곡공원점
37.4921442,127.0573977,starbucks,스타벅스 도곡역점
37.5195638,127.0340614,starbucks,스타벅스 도산사거리점
37.5712586,126.9614963,starbucks,스타벅스 독립문역
37.468955,126.895603,starbucks,스타벅스 독산역점
37.5568,126.9199678,starbucks,스타벅스 동교점
37.5582876,127.0001671,starbucks,스타벅스 동국대점
37.5651893,127.0072304,starbucks,스타벅스 동대문공원점
37.5689316,127.0087977,starbucks,스타벅스 동대문두타점
37.5595901,127.0061231,starbucks,스타벅스 동대입구역점
37.572746,127.015986,starbucks,스타벅스 동묘앞역점
37.5211311,126.9690522,starbucks,스타벅스 동부이촌동점
37.528964,126.991805,starbucks,스타벅스 동빙고점
37.5820171,127.0035363,starbucks,스타벅스 동숭길입구점
37.5829419,127.0038862,starbucks,스타벅스 동숭로아트점
37.5204905,126.9315303,starbucks,스타벅스 동여의도점
37.522741,127.133992,starbucks,스타벅스 둔촌동점
37.4858711,126.8915302,starbucks,스타벅스 드림마크원점
37.5503797,126.8665975,starbucks,스타벅스 등촌대로점
37.5582043,126.8443392,starbucks,스타벅스 등촌역점
37.5582043,126.8443392,starbucks,스타벅스 등촌점
37.546432,127.0490419,starbucks,스타벅스 뚝섬역점
37.531544,127.066708,starbucks,스타벅스 뚝섬유원지역
37.5199093,126.9317832,starbucks,스타벅스 롯데캐슬 여의도점
37.5681892,126.8261933,starbucks,스타벅스 마곡나루역점
37.5606962,126.8336086,starbucks,스타벅스 마곡사이언스타워R점
37.5619185,126.826919,starbucks,스타벅스 마곡역점
37.5604321,126.8295888,starbucks,스타벅스 마곡웰튼점
37.5604321,126.8295888,starbucks,스타벅스 마곡GMG점
37.4785353,126.8847309,starbucks,스타벅스 마리오아울렛점
37.5508847,126.9535067,starbucks,스타벅스 마포경찰서후문
37.5412537,126.9489374,starbucks,스타벅스 마포아크로점
37.5411219,126.9420858,starbucks,스타벅스 마포용강동점
37.542226,126.953578,starbucks,스타벅스 마포이마트
37.54043,126.94632,starbucks,스타벅스 마포일진빌딩점
37.5557309,126.9107312,starbucks,스타벅스 망원역점
37.5539804,126.8963214,starbucks,스타벅스 망원한강공원점
37.5638244,126.9857117,starbucks,스타벅스 명동 중앙로
37.5619765,126.9858402,starbucks,스타벅스 명동길점
37.5537586,126.9809696,starbucks,스타벅스 명동남산
37.5650962,126.9837163,starbucks,스타벅스 명동메트로
37.5609892,126.9861868,starbucks,스타벅스 명동역
37.5631654,126.9822225,starbucks,스타벅스 명동입구
37.5638244,126.9857117,starbucks,스타벅스 명동중앙로
37.5525539,127.1437525,starbucks,스타벅스 명일역점
37.5539649,127.1559881,starbucks,스타벅스 명일이마트점
37.542042,126.8758279,starbucks,스타벅스 목동10단지점
37.536448,126.8821667,starbucks,스타벅스 목동5단지점
37.528015,126.87057,starbucks,스타벅스 목동7단지점
37.520518,126.8688409,starbucks,스타벅스 목동8단지점
37.5266769,126.8639586,starbucks,스타벅스 목동역점
37.5259231,126.868438,starbucks,스타벅스 목동오목로점
37.536423,126.878672,starbucks,스타벅스 목동점
37.5258712,126.8708145,starbucks,스타벅스 목동트라팰리스점
37.528916,126.874799,starbucks,스타벅스 목동파라곤점
37.536259,126.8791467,starbucks,스타벅스 목동파리공원점
37.5370192,126.8735297,starbucks,스타벅스 목동행복한점
37.4982107,127.0269111,starbucks,스타벅스 몬테소리점
37.5218922,127.1228483,starbucks,스타벅스 몽촌토성역점
37.5672459,126.9789,starbucks,스타벅스 무교로점
37.6154214,127.0766741,starbucks,스타벅스 묵동점
37.51958,126.889623,starbucks,스타벅스 문래동점
37.517382,126.895267,starbucks,스타벅스 문래역점
37.491868,127.1262565,starbucks,스타벅스 문정로데오점
37.4876299,127.118858,starbucks,스타벅스 문정법원로R
37.4852613,127.1222385,starbucks,스타벅스 문정역점
37.5670828,126.9686365,starbucks,스타벅스 문화일보점
37.618434,127.021141,starbucks,스타벅스 미아뉴타운점
37.611809,127.0306971,starbucks,스타벅스 미아사거리역점
37.6260494,127.0266005,starbucks,스타벅스 미아역점
37.6260494,127.0266005,starbucks,스타벅스 미아이마트점
37.6075807,127.0293034,starbucks,스타벅스 미아점
37.5085774,127.0119102,starbucks,스타벅스 반포역점
37.5031833,127.0079167,starbucks,스타벅스 반포자이점
37.5601723,126.8393026,starbucks,스타벅스 발산역사거리점
37.5601723,126.8393026,starbucks,스타벅스 발산역점
37.4843008,126.9960781,starbucks,스타벅스 방배다이치빌딩점
37.4793434,126.9994968,starbucks,스타벅스 방배로점
37.48201,126.99764,starbucks,스타벅스 방배역점
37.4919853,126.9906289,starbucks,스타벅스 방배점
37.4799348,126.9934602,starbucks,스타벅스 방배카페거리
37.5085169,127.1266393,starbucks,스타벅스 방이역점
37.665366,127.0434767,starbucks,스타벅스 방학역점
37.5743389,126.8164145,starbucks,스타벅스 방화DT
37.4920496,126.9234976,starbucks,스타벅스 보라매공원R점
37.49099,126.925521,starbucks,스타벅스 보라매대교점
37.5112978,127.04842,starbucks,스타벅스 봉은사로 선정릉점
37.5150215,127.063172,starbucks,스타벅스 봉은사역점
37.4820227,126.9422444,starbucks,스타벅스 봉천역점
37.5784186,126.9099561,starbucks,스타벅스 북가좌DT점
37.579419,126.986444,starbucks,스타벅스 북촌로점
37.5795641,127.0879688,starbucks,스타벅스 사가정역점
37.4772518,126.9821525,starbucks,스타벅스 사당로데오점
37.47849,126.98135,starbucks,스타벅스 사당역점
37.4760891,126.9810116,starbucks,스타벅스 사당R점
37.588696,127.0073207,starbucks,스타벅스 삼선교점
37.5107503,127.0635903,starbucks,스타벅스 삼성동점
37.5075512,127.060561,starbucks,스타벅스 삼성역섬유센터R점
37.5853358,126.9816987,starbucks,스타벅스 삼청동점
37.6567226,127.0664411,starbucks,스타벅스 상계초교사거리점
37.5031939,126.9484286,starbucks,스타벅스 상도역점
37.5968974,127.086455,starbucks,스타벅스 상봉
37.5968974,127.086455,starbucks,스타벅스 상봉역점
37.576088,126.889136,starbucks,스타벅스 상암디지털큐브점
37.581374,126.8887417,starbucks,스타벅스 상암사보이시티
37.5776416,126.8906597,starbucks,스타벅스 상암DMC점
37.5809977,126.891831,starbucks,스타벅스 상암MBC점
37.564992,127.027656,starbucks,스타벅스 상왕십리역점
37.5574569,127.1709981,starbucks,스타벅스 상일동역점
37.5510764,127.1741617,starbucks,스타벅스 상일동점
37.5697922,126.9750549,starbucks,스타벅스 새문안로점
37.5167428,126.9288901,starbucks,스타벅스 샛강역점
37.549419,126.931662,starbucks,스타벅스 서강광흥창역점
37.5523762,126.9377752,starbucks,스타벅스 서강대점
37.5523762,126.9377752,starbucks,스타벅스 서강대흥역
37.55334,126.918578,starbucks,스타벅스 서교동사거리
37.5513862,126.9168916,starbucks,스타벅스 서교점
37.5666036,126.9662841,starbucks,스타벅스 서대문역점
37.4992222,126.9984676,starbucks,스타벅스 서래마을입구점
37.5629925,126.9745124,starbucks,스타벅스 서소문로점
37.5628225,126.9721986,starbucks,스타벅스 서소문배재
37.504406,127.005648,starbucks,스타벅스 서울고속터미널점
37.566535,126.9779692,starbucks,스타벅스 서울교대점
37.4811125,126.9513217,starbucks,스타벅스 서울대역점
37.4811125,126.9513217,starbucks,스타벅스 서울대입구역점
37.5775956,126.9998863,starbucks,스타벅스 서울대치과병원점
37.5148388,127.0357329,starbucks,스타벅스 서울세관사거리점
37.5447111,127.0494821,starbucks,스타벅스 서울숲역점
37.566535,126.9779692,starbucks,스타벅스 서울시청점
37.4805909,127.0123936,starbucks,스타벅스 서울아트센터점
37.566535,126.9779692,starbucks,스타벅스 서울양평역점
37.5523409,126.972128,starbucks,스타벅스 서울역동자동점
37.5541592,126.9718882,starbucks,스타벅스 서울역사점
37.5548694,126.9684152,starbucks,스타벅스 서울역서부점
37.5187312,127.0067959,starbucks,스타벅스 서울웨이브아트센터점
37.5612076,126.9818117,starbucks,스타벅스 서울중앙우체국점
37.5511942,126.9881173,starbucks,스타벅스 서울타워점
37.4918146,127.0252252,starbucks,스타벅스 서이초교사거리점
37.4837121,127.0324112,starbucks,스타벅스 서초구청점
37.485981,127.0215294,starbucks,스타벅스 서초동점
37.492767,127.01179,starbucks,스타벅스 서초법원점
37.49184,127.007688,starbucks,스타벅스 서초역이화빌딩점
37.4906655,127.0086297,starbucks,스타벅스 서초역점
37.4935046,127.0292214,starbucks,스타벅스 서초우성사거리점
37.5016276,127.011526,starbucks,스타벅스 서초중앙로점
37.4949214,127.0273968,starbucks,스타벅스 서초파라곤점
37.5064215,127.0967159,starbucks,스타벅스 석촌서호
37.5057138,127.1070689,starbucks,스타벅스 석촌역
37.5094027,127.1052218,starbucks,스타벅스 석촌호수점
37.5037306,127.0511864,starbucks,스타벅스 선릉 세화빌딩점
37.5052818,127.050481,starbucks,스타벅스 선릉동신빌딩R점
37.5049945,127.0467617,starbucks,스타벅스 선릉로점
37.537865,126.893927,starbucks,스타벅스 선유도역1번출구점
37.537316,126.894557,starbucks,스타벅스 선유도역점
37.533941,126.896805,starbucks,스타벅스 선유동이레빌딩점
37.51064,127.044409,starbucks,스타벅스 선정릉역점
37.5829241,126.9983904,starbucks,스타벅스 성대입구점
37.5465029,127.065263,starbucks,스타벅스 성수낙낙점
37.543193,127.0569432,starbucks,스타벅스 성수역점
37.539768,127.053205,starbucks,스타벅스 성수이마트점
37.543193,127.0569432,starbucks,스타벅스 성수점
37.5931137,127.0184022,starbucks,스타벅스 성신여대점
37.590891,127.018793,starbucks,스타벅스 성신여대정문
37.5035748,127.0415772,starbucks,스타벅스 센터필드R점
37.50435,127.00352,starbucks,스타벅스 센트럴시티점
37.50435,127.00352,starbucks,스타벅스 센트럴F1점
37.5623685,126.9770254,starbucks,스타벅스 소공로점
37.514573,127.107404,starbucks,스타벅스 송파구청점
37.4995548,127.14756,starbucks,스타벅스 송파마천사거리DT점
37.5022465,127.1103401,starbucks,스타벅스 송파사거리점
37.4784868,127.1432784,starbucks,스타벅스 송파위례점
37.5016722,127.1088775,starbucks,스타벅스 송파헬리오시티점
37.5022465,127.1103401,starbucks,스타벅스 송파KT
37.5145437,127.1065971,starbucks,스타벅스 송파NC점
37.5836106,126.8932739,starbucks,스타벅스 수색점
37.4874685,127.1013245,starbucks,스타벅스 수서역사거리점
37.4880487,127.1030338,starbucks,스타벅스 수서역R점
37.6346285,127.0239971,starbucks,스타벅스 수유역점
37.5441497,126.9718976,starbucks,스타벅스 숙대입구역점
37.5445812,126.9671959,starbucks,스타벅스 숙대점
37.533393,127.0056837,starbucks,스타벅스 순천향입구점
37.5616171,126.9768946,starbucks,스타벅스 숭례문북창점
37.558679,126.973295,starbucks,스타벅스 숭례문에스지타워
37.558679,126.973295,starbucks,스타벅스 숭례문점
37.496888,126.952685,starbucks,스타벅스 숭실대입구역점
37.49538,126.95489,starbucks,스타벅스 숭실대점
37.509965,127.0615809,starbucks,스타벅스 스타필드코엑스몰R점
37.5743822,126.9688505,starbucks,스타벅스 스페이스본점
37.505276,127.023693,starbucks,스타벅스 신논현역점
37.5657275,127.0165284,starbucks,스타벅스 신당역사거리점
37.5652778,127.0144444,starbucks,스타벅스 신당역점
37.4977519,126.9277332,starbucks,스타벅스 신대방삼거리역점
37.5055486,126.8838008,starbucks,스타벅스 신도림점
37.4846038,126.9304905,starbucks,스타벅스 신림사거리점
37.48609,126.92916,starbucks,스타벅스 신림점
37.4838735,126.9302332,starbucks,스타벅스 신림타임스트림점
37.4809346,126.9084069,starbucks,스타벅스 신림DT점
37.5231572,127.0216249,starbucks,스타벅스 신사가로수점
37.513899,127.0206125,starbucks,스타벅스 신사역성일빌딩점
37.516163,127.020677,starbucks,스타벅스 신사역점
37.5766701,127.0255138,starbucks,스타벅스 신설동역
37.5609432,126.9825464,starbucks,스타벅스 신세계본점 5F
37.5609432,126.9825464,starbucks,스타벅스 신세계본점6F
37.5176084,126.905008,starbucks,스타벅스 신세계타임스퀘어B2점
37.528578,126.966843,starbucks,스타벅스 신용산역점
37.519981,126.8365553,starbucks,스타벅스 신월동DT점
37.5295187,126.8323691,starbucks,스타벅스 신월IC DT점
37.52201,126.858875,starbucks,스타벅스 신정DT점
37.5577525,126.9381458,starbucks,스타벅스 신촌명물거리점
37.5565354,126.9402235,starbucks,스타벅스 신촌아트레온점
37.5562647,126.9345138,starbucks,스타벅스 신촌역점
37.55515,126.934692,starbucks,스타벅스 신촌오거리
37.5564899,126.93712,starbucks,스타벅스 신촌점
37.6483224,127.0348734,starbucks,스타벅스 쌍문역점
37.51053,127.07905,starbucks,스타벅스 아시아선수촌점
37.5715087,127.1037627,starbucks,스타벅스 아차산역점
37.5583548,126.9562378,starbucks,스타벅스 아현역점
37.5773124,126.9856772,starbucks,스타벅스 안국점
37.5861907,127.0306658,starbucks,스타벅스 안암역점
37.52668,127.04062,starbucks,스타벅스 압구정로데오역
37.5227934,127.0286009,starbucks,스타벅스 압구정윤성빌딩점
37.5226879,127.0252724,starbucks,스타벅스 압구정R점
37.55219,126.95552,starbucks,스타벅스 애오개역점
37.5553978,127.0107109,starbucks,스타벅스 약수역점
37.4851645,127.0368749,starbucks,스타벅스 양재강남빌딩R점
37.482277,127.036851,starbucks,스타벅스 양재역점
37.568105,126.841909,starbucks,스타벅스 양천향교역
37.549363,127.0818126,starbucks,스타벅스 어린이대공원역점
37.5621482,127.0379421,starbucks,스타벅스 엔터식스점
37.5301361,126.9210698,starbucks,스타벅스 여의도 의사당점
37.5254157,126.9215157,starbucks,스타벅스 여의도공원R
37.524789,126.9241704,starbucks,스타벅스 여의도신한금융투자타워
37.523325,126.923449,starbucks,스타벅스 여의도역R
37.5278712,126.9202202,starbucks,스타벅스 여의도일신점
37.5223655,126.9290942,starbucks,스타벅스 여의도한양증권점
37.520368,126.9292475,starbucks,스타벅스 여의도호성
37.521345,126.925982,starbucks,스타벅스 여의도화재보험
37.518755,126.927833,starbucks,스타벅스 여의도ABL타워점
37.5249367,126.9252845,starbucks,스타벅스 여의도IFC
37.5249367,126.9252845,starbucks,스타벅스 여의도IFC몰(L1)R
37.5265312,126.9180995,starbucks,스타벅스 여의도KBSR점
37.5019224,127.039439,starbucks,스타벅스 역삼대로점
37.5010689,127.0430285,starbucks,스타벅스 역삼아레나빌딩점
37.4954613,127.0404932,starbucks,스타벅스 역삼이마트점
37.5663794,126.9463141,starbucks,스타벅스 연대동문
37.5586535,126.9366773,starbucks,스타벅스 연대점
37.5625495,126.9375777,starbucks,스타벅스 연세백양로점
37.5623371,126.9408692,starbucks,스타벅스 연세세브란스점
37.5609254,126.9404467,starbucks,스타벅스 연세종합관점
37.6187724,126.9217574,starbucks,스타벅스 연신내역사거리점
37.617737,126.9200526,starbucks,스타벅스 연신내점
37.5743788,126.9803767,starbucks,스타벅스 연합뉴스점
37.566801,126.930583,starbucks,스타벅스 연희동점
37.5702333,126.9338528,starbucks,스타벅스 연희DT점
37.547251,126.8745264,starbucks,스타벅스 염창역점
37.4819845,127.0426349,starbucks,스타벅스 영동2교점
37.5256868,126.8968943,starbucks,스타벅스 영등포구청역점
37.5187192,126.9095242,starbucks,스타벅스 영등포본동점
37.5187192,126.9095242,starbucks,스타벅스 영등포시장교차로점
37.5045703,126.9100555,starbucks,스타벅스 영등포신길
37.5169614,126.909139,starbucks,스타벅스 영등포역점
37.526608,126.9053537,starbucks,스타벅스 영등포KT점
37.4961687,126.8448492,starbucks,스타벅스 오류동역점
37.5235882,126.8765212,starbucks,스타벅스 오목교역점
37.5430298,127.0133661,starbucks,스타벅스 옥수
37.5133218,127.1230999,starbucks,스타벅스 올림픽공원남문점
37.5241832,127.1286775,starbucks,스타벅스 올림픽공원북2문점
37.5153144,127.1332352,starbucks,스타벅스 올림픽아파트점
37.5156426,127.1164819,starbucks,스타벅스 올림픽평화의문점
37.4915118,127.1164066,starbucks,스타벅스 올림픽훼미리점
37.5627152,127.0338928,starbucks,스타벅스 왕십리역점
35.2639528,129.0847368,starbucks,스타벅스 외대점
37.595345,127.059288,starbucks,스타벅스 외대정문점
37.5344004,127.0078564,starbucks,스타벅스 용산리첸시아점
37.5299965,126.9644421,starbucks,스타벅스 용산아이파크몰점
37.5274163,126.9658935,starbucks,스타벅스 용산역써밋R점
37.5327608,126.9596945,starbucks,스타벅스 용산전자랜드점
37.5239211,126.9704861,starbucks,스타벅스 용산파크타워점
37.5426383,126.9518887,starbucks,스타벅스 용산해링턴스퀘어점
37.5495626,126.8359438,starbucks,스타벅스 우장산역점
37.6311531,127.0577021,starbucks,스타벅스 월계역점
37.6265118,127.0619079,starbucks,스타벅스 월계이마트점
37.6281557,127.0626394,starbucks,스타벅스 월계트레이더스점
37.6017142,127.0404475,starbucks,스타벅스 월곡역점
37.601207,126.9269095,starbucks,스타벅스 은평구청입구점
37.5999023,126.9203808,starbucks,스타벅스 은평이마트점
37.6504634,127.0759752,starbucks,스타벅스 은행사거리점
37.566297,126.987966,starbucks,스타벅스 을지로2가점
37.5665691,126.9972905,starbucks,스타벅스 을지로4가역점
37.5672015,126.9831912,starbucks,스타벅스 을지로경기빌딩
37.5669467,126.982232,starbucks,스타벅스 을지로국제빌딩점
37.5664794,126.9836634,starbucks,스타벅스 을지로내외빌딩R점
37.5668679,126.9846646,starbucks,스타벅스 을지로삼화타워
37.5655465,126.9832826,starbucks,스타벅스 을지로한국빌딩
37.5190997,127.0284862,starbucks,스타벅스 을지병원사거리점
37.5583821,126.9459524,starbucks,스타벅스 이대이씨씨(ECC)점
37.5583821,126.9459524,starbucks,스타벅스 이대R점
37.5738013,126.978811,starbucks,스타벅스 이마빌딩점
37.4865089,126.9825563,starbucks,스타벅스 이수역사거리점
37.4865089,126.9825563,starbucks,스타벅스 이수역점
37.4843975,126.9804278,starbucks,스타벅스 이수자이점
37.5186322,126.9772858,starbucks,스타벅스 이촌점
37.5342727,126.9947897,starbucks,스타벅스 이태원역점
37.5370725,127.0825337,starbucks,스타벅스 자양사거리점
37.5648322,126.8342406,starbucks,스타벅스 자양이마트점
37.5354569,127.0691282,starbucks,스타벅스 자양점
37.5114662,127.0811206,starbucks,스타벅스 잠실 새내역점
37.5155153,127.0989279,starbucks,스타벅스 잠실대교 남단R점
37.5152717,127.0994664,starbucks,스타벅스 잠실역점
37.6156087,127.0507954,starbucks,스타벅스 장위뉴타운점
37.5622228,127.0655129,starbucks,스타벅스 장한평역점
37.5686502,126.9701419,starbucks,스타벅스 정동점
37.5742419,126.9735174,starbucks,스타벅스 정부서울청사R
37.56996,126.98455,starbucks,스타벅스 종각점
37.5705527,126.9902055,starbucks,스타벅스 종로3가점
37.5697283,126.9886774,starbucks,스타벅스 종로관수점
37.5690053,126.9860058,starbucks,스타벅스 종로관철점
37.57255,126.981028,starbucks,스타벅스 종로구청점
37.571613,126.980701,starbucks,스타벅스 종로수송점
37.6054629,126.966324,starbucks,스타벅스 종로평창점
37.6010803,127.0337819,starbucks,스타벅스 종암점
37.5919525,127.0360401,starbucks,스타벅스 종암DT점
37.571349,126.9982866,starbucks,스타벅스 주얼리시티점
37.6481647,127.0623295,starbucks,스타벅스 중계역점
37.565535,127.084086,starbucks,스타벅스 중곡역
37.5645052,126.9902443,starbucks,스타벅스 중구저동점
37.605444,127.0957117,starbucks,스타벅스 중랑구청점
37.5930326,127.0747358,starbucks,스타벅스 중랑역점
37.5068908,126.9581584,starbucks,스타벅스 중앙대점
37.601802,127.0783667,starbucks,스타벅스 중화역점
37.6516821,127.046933,starbucks,스타벅스 창동이마트점
37.5346947,127.1372348,starbucks,스타벅스 천호대로길동점
37.5378069,127.1273094,starbucks,스타벅스 천호로데오점
37.5397441,127.1232777,starbucks,스타벅스 천호사거리점
37.5439937,127.1256452,starbucks,스타벅스 천호역점
37.5378069,127.1273094,starbucks,스타벅스 천호이마트점
37.4474269,127.0559017,starbucks,스타벅스 청계산입구역점
37.5678056,126.9892805,starbucks,스타벅스 청계크리스탈스퀘어점
37.52205,127.056224,starbucks,스타벅스 청담영동대로점
37.5243631,127.0515599,starbucks,스타벅스 청담점
37.5798263,127.0481233,starbucks,스타벅스 청량리역사점
37.5614096,126.9938794,starbucks,스타벅스 충무로역점
37.5614457,126.9631795,starbucks,스타벅스 충정로역점
37.5598359,126.9640361,starbucks,스타벅스 충정타워
37.5099242,127.060181,starbucks,스타벅스 코엑스 별마당점
37.5130417,127.0597688,starbucks,스타벅스 코엑스아셈타워점
37.5172795,126.9035275,starbucks,스타벅스 타임스퀘어B2점
37.517007,126.9041419,starbucks,스타벅스 타임스퀘어R점
37.6179085,127.0750345,starbucks,스타벅스 태릉입구역DT점
37.562447,126.976725,starbucks,스타벅스 태평로점
37.5037497,127.0448356,starbucks,스타벅스 테헤란로아남타워점
37.5030027,127.0042922,starbucks,스타벅스 파미에파크R점
37.5613107,126.9729685,starbucks,스타벅스 퍼시픽 타워점
37.5075307,127.0574271,starbucks,스타벅스 포스코사거리점
37.5656637,126.9894803,starbucks,스타벅스 포포인츠 명동
37.5509795,126.9727511,starbucks,스타벅스 포포인츠서울역점
37.4631657,127.0365398,starbucks,스타벅스 하이브랜드점
37.56721,126.977739,starbucks,스타벅스 한국프레스센터점
37.5347739,127.0109257,starbucks,스타벅스 한남동R점
37.588973,127.0049025,starbucks,스타벅스 한성대입구역점
37.55713,127.042134,starbucks,스타벅스 한양대점
37.5498821,126.9125035,starbucks,스타벅스 합정
37.550115,126.91368,starbucks,스타벅스 합정메세나몰
37.5509746,126.9134915,starbucks,스타벅스 합정폴리스R
37.50904,126.889424,starbucks,스타벅스 현대디큐브 2F
37.5092004,126.8898554,starbucks,스타벅스 현대디큐브 B2
37.6083313,127.0287845,starbucks,스타벅스 현대미아점
37.5560608,126.9357968,starbucks,스타벅스 현대신촌점
37.5825034,127.0021501,starbucks,스타벅스 혜화역점
37.55752,126.9251051,starbucks,스타벅스 홍대공항철도역점
37.5501746,126.9232089,starbucks,스타벅스 홍대삼거리점
37.557527,126.9244669,starbucks,스타벅스 홍대역
37.5567175,126.9241652,starbucks,스타벅스 홍대역8번출구점
37.5886324,126.943832,starbucks,스타벅스 홍제역점
37.540523,126.8374245,starbucks,스타벅스 화곡동점
37.5350245,126.863116,starbucks,스타벅스 화곡DT점
37.5644439,126.9791611,starbucks,스타벅스 환구단점
37.5675822,127.0237182,starbucks,스타벅스 황학사거리점
37.5711857,127.0231382,starbucks,스타벅스 황학캐슬점
37.5907694,127.0561043,starbucks,스타벅스 회기역사거리점
37.5593937,126.9807436,starbucks,스타벅스 회현역점
37.539289,126.961339,starbucks,스타벅스 효창공원앞역점
37.4854711,127.1138536,starbucks,스타벅스 KG타워점
37.4774266,126.8877548,starbucks,스타벅스 W-Mall점
37.4931113,127.1188473,twosomeplace,투썸플레이스 가락시장역2호점
37.4939614,127.1208265,twosomeplace,투썸플레이스 가락시장역점
37.480299,126.883921,twosomeplace,투썸플레이스 가산대륭18차점
37.481932,126.881509,twosomeplace,투썸플레이스 가산디지털점
37.4777579,126.8854724,twosomeplace,투썸플레이스 가산로데오점
37.4813213,126.8838978,twosomeplace,투썸플레이스 가산아울렛점
37.4739553,126.8887023,twosomeplace,투썸플레이스 가산하이앤드점
37.5648322,126.8342406,twosomeplace,투썸플레이스 가양역점
37.5698007,126.9177723,twosomeplace,투썸플레이스 가재울엘가점
37.5172363,127.0473248,twosomeplace,투썸플레이스 강남구청역점
37.522336,127.031173,twosomeplace,투썸플레이스 강남도산점
37.5083662,127.0554157,twosomeplace,투썸플레이스 강남삼성로점
37.4664739,127.1004851,twosomeplace,투썸플레이스 강남세곡점
37.4950458,127.0448673,twosomeplace,투썸플레이스 강남세브란스병원점
37.4795828,127.0885477,twosomeplace,투썸플레이스 강남수서점
37.5173942,127.0212493,twosomeplace,투썸플레이스 강남신사점
37.4959181,127.0261105,twosomeplace,투썸플레이스 강남역더에셋점
37.4990748,127.0470296,twosomeplace,투썸플레이스 강남역삼로점
37.4968834,127.0295416,twosomeplace,투썸플레이스 강남역KR타워점
37.4911668,127.0794836,twosomeplace,투썸플레이스 강남일원점
37.474172,127.0950243,twosomeplace,투썸플레이스 강남자곡점
37.4997004,127.0310168,twosomeplace,투썸플레이스 강남IBC점
37.5172363,127.0473248,twosomeplace,투썸플레이스 강남KI타워점
37.5301251,127.123762,twosomeplace,투썸플레이스 강동구청점
37.5496364,127.1434919,twosomeplace,투썸플레이스 강동명일점
37.5301251,127.123762,twosomeplace,투썸플레이스 강동역점
37.5358099,127.0952387,twosomeplace,투썸플레이스 강변씨지브이
37.5357248,127.0919231,twosomeplace,투썸플레이스 강변역점
37.5609318,126.810451,twosomeplace,투썸플레이스 강서 송정역점
37.5509786,126.8495382,twosomeplace,투썸플레이스 강서구청점
37.558653,126.8532512,twosomeplace,투썸플레이스 강서등촌3동점
37.558653,126.8532512,twosomeplace,투썸플레이스 강서등촌한빛점
37.4940896,126.8588935,twosomeplace,투썸플레이스 개봉역점
37.572345,126.8068476,twosomeplace,투썸플레이스 개화산역점
37.5383302,127.0706318,twosomeplace,투썸플레이스 건대스타시티점
37.5423742,127.0712942,twosomeplace,투썸플레이스 건대입구점
37.4949482,127.1222675,twosomeplace,투썸플레이스 경찰병원역점
37.5922911,127.0522576,twosomeplace,투썸플레이스 경희대점
37.5900117,127.0318586,twosomeplace,투썸플레이스 고대SK미래관점
37.5900117,127.0318586,twosomeplace,투썸플레이스 고려대법학관점
37.5477916,126.8781215,twosomeplace,투썸플레이스 골든서울호텔
37.570368,126.974087,twosomeplace,투썸플레이스 광화문
37.570368,126.974087,twosomeplace,투썸플레이스 광화문역점
37.49381,127.0149994,twosomeplace,투썸플레이스 교대역점
37.4947879,126.8886651,twosomeplace,투썸플레이스 구로구청사거리점
37.4838281,126.8954511,twosomeplace,투썸플레이스 구로대륭1차점
37.4954031,126.887369,twosomeplace,투썸플레이스 구로대륭7차
37.4858488,126.8972575,twosomeplace,투썸플레이스 구로디지털점
37.4797757,126.8228707,twosomeplace,투썸플레이스 구로항동점
37.5381267,127.083753,twosomeplace,투썸플레이스 구의역점
37.5556768,127.0783489,twosomeplace,투썸플레이스 군자역점
37.5431493,127.1416967,twosomeplace,투썸플레이스 굽은다리역점
37.459141,126.8974447,twosomeplace,투썸플레이스 금천롯데캐슬골드파크점
37.5474185,127.0259842,twosomeplace,투썸플레이스 금호힐스테이트
37.5392074,127.1461206,twosomeplace,투썸플레이스 길동점
37.5315795,126.8465242,twosomeplace,투썸플레이스 까치산역점
37.5215724,126.8635459,twosomeplace,투썸플레이스 남부지방법원점
37.6541917,127.056793,twosomeplace,투썸플레이스 노원구청점
37.5728688,127.057406,twosomeplace,투썸플레이스 답십리사거리
37.5696589,127.0576058,twosomeplace,투썸플레이스 답십리점
37.4925149,126.9094505,twosomeplace,투썸플레이스 대림삼거리점
37.4955091,126.899438,twosomeplace,투썸플레이스 대림역점
37.5121923,126.9249228,twosomeplace,투썸플레이스 대방역점
37.4994914,127.0610527,twosomeplace,투썸플레이스 대치선릉점
37.6579331,127.0387799,twosomeplace,투썸플레이스 도봉보건소점
37.686985,127.040423,twosomeplace,투썸플레이스 도봉산입구점
37.5215413,127.0338265,twosomeplace,투썸플레이스 도산공원사거리점
37.4710733,126.8986801,twosomeplace,투썸플레이스 독산사거리점
37.558067,126.928544,twosomeplace,투썸플레이스 동교동삼거리점
37.5730339,127.0148847,twosomeplace,투썸플레이스 동묘앞역점
37.5333713,127.0933675,twosomeplace,투썸플레이스 동서울터미널
37.5295808,126.9326803,twosomeplace,투썸플레이스 동여의도점
37.5400345,126.8628887,twosomeplace,투썸플레이스 등촌로점
37.5517252,126.8640416,twosomeplace,투썸플레이스 등촌역점
37.5112348,127.0980274,twosomeplace,투썸플레이스 롯데월드점
37.5764888,126.8307466,twosomeplace,투썸플레이스 마곡나루역점
37.5752842,126.8211157,twosomeplace,투썸플레이스 마곡역점
37.5603566,126.8321908,twosomeplace,투썸플레이스 마곡점
37.5637561,126.9084211,twosomeplace,투썸플레이스 마포구청점
37.5637561,126.9084211,twosomeplace,투썸플레이스 마포노고산점
37.5458958,126.9515058,twosomeplace,투썸플레이스 마포대로점
37.5637561,126.9084211,twosomeplace,투썸플레이스 마포망원점
37.5637561,126.9084211,twosomeplace,투썸플레이스 마포역점
37.6000262,127.1068617,twosomeplace,투썸플레이스 망우점
37.554843,126.911507,twosomeplace,투썸플레이스 망원역점
37.5605197,126.9928561,twosomeplace,투썸플레이스 매경미디어센터점
37.5644361,126.9886243,twosomeplace,투썸플레이스 명동성당사거리점 
37.5613675,126.986952,twosomeplace,투썸플레이스 명동L7점
37.5288784,126.8759799,twosomeplace,투썸플레이스 목동메가박스
37.527149,126.875036,twosomeplace,투썸플레이스 목동하이페리온점
37.6113617,127.0787546,twosomeplace,투썸플레이스 묵동자이점
37.5144795,126.8991445,twosomeplace,투썸플레이스 문래하이테크시티점
37.5906171,127.0043319,twosomeplace,투썸플레이스 문정 KD70점
37.4909368,127.1256814,twosomeplace,투썸플레이스 문정로데오점
37.5009527,127.0032617,twosomeplace,투썸플레이스 반포효성점
37.5594238,126.8265243,twosomeplace,투썸플레이스 발산역점
37.5589698,126.831019,twosomeplace,투썸플레이스 발산W타워점
37.4959464,126.9857906,twosomeplace,투썸플레이스 방배카페거리점
37.474779,127.0001681,twosomeplace,투썸플레이스 방배CJ건설사옥점
37.6666527,127.0434771,twosomeplace,투썸플레이스 방학역점
37.4868798,127.0323781,twosomeplace,투썸플레이스 뱅뱅사거리점
37.4913946,126.923403,twosomeplace,투썸플레이스 보라매삼성쉐르빌점
37.5873505,127.0177306,twosomeplace,투썸플레이스 보문역점
37.627334,127.0379897,twosomeplace,투썸플레이스 북서울꿈의숲점
37.5792855,127.0869222,twosomeplace,투썸플레이스 사가정역점
37.476559,126.981633,twosomeplace,투썸플레이스 사당역 로데오점
37.476102,126.980388,twosomeplace,투썸플레이스 사당점
37.5096517,127.0593385,twosomeplace,투썸플레이스 삼성도심공항점
37.5077884,127.0610455,twosomeplace,투썸플레이스 삼성역점
37.5125731,127.0508008,twosomeplace,투썸플레이스 삼성중앙역점
37.5623441,126.9755463,twosomeplace,투썸플레이스 삼성카드사옥점
37.5048746,127.0883449,twosomeplace,투썸플레이스 삼전역점
37.5046818,127.0103848,twosomeplace,투썸플레이스 삼호가든사거리점
37.6512686,127.0617492,twosomeplace,투썸플레이스 상계사거리점
37.6613416,127.0710472,twosomeplace,투썸플레이스 상계점
37.5781711,126.894616,twosomeplace,투썸플레이스 상암E&M점
37.5511064,127.1646653,twosomeplace,투썸플레이스 상일동역점
37.5522207,126.9389212,twosomeplace,투썸플레이스 서강대점
37.56577,126.96665,twosomeplace,투썸플레이스 서대문역 바비엥점
37.5296225,126.9203828,twosomeplace,투썸플레이스 서여의도점
37.4818225,126.9521689,twosomeplace,투썸플레이스 서울대역중앙점
37.4793627,126.9520902,twosomeplace,투썸플레이스 서울대입구역점
37.5447111,127.0494821,twosomeplace,투썸플레이스 서울숲역점
37.5832041,127.0539444,twosomeplace,투썸플레이스 서울시립대점
37.5662407,126.9794152,twosomeplace,투썸플레이스 서울시청점
37.5866169,127.0977437,twosomeplace,투썸플레이스 서일대점
37.4837121,127.0324112,twosomeplace,투썸플레이스 서초구청점
37.4872011,127.0109617,twosomeplace,투썸플레이스 서초센트럴아이파크점
37.4920723,127.0093575,twosomeplace,투썸플레이스 서초역점
37.4837121,127.0324112,twosomeplace,투썸플레이스 서초유니온타워점
37.615597,127.0641354,twosomeplace,투썸플레이스 석계역점
37.435161,126.902233,twosomeplace,투썸플레이스 석수역점
37.506981,127.101337,twosomeplace,투썸플레이스 석촌호수점
37.5042062,127.0443804,twosomeplace,투썸플레이스 선릉로점
37.5070339,127.047777,twosomeplace,투썸플레이스 선릉ing점
37.5384269,126.8946179,twosomeplace,투썸플레이스 선유도역점
37.5465029,127.065263,twosomeplace,투썸플레이스 성수낙낙점
37.5433863,127.0554176,twosomeplace,투썸플레이스 성수SK V타워점
37.5919146,127.0176763,twosomeplace,투썸플레이스 성신여대점
37.5158373,127.0349965,twosomeplace,투썸플레이스 세관사거리점
37.5527276,127.0743312,twosomeplace,투썸플레이스 세종대학교점
37.5633612,126.9786553,twosomeplace,투썸플레이스 소공로북창점
37.5145437,127.1065971,twosomeplace,투썸플레이스 송파구청사거리점
37.510276,127.112224,twosomeplace,투썸플레이스 송파나루역점
37.5140777,127.1334283,twosomeplace,투썸플레이스 송파올림픽아파트남문점
37.5155593,127.1143567,twosomeplace,투썸플레이스 송파잠실H타워점
37.4775778,127.1249983,twosomeplace,투썸플레이스 송파장지역점
37.6781781,127.054371,twosomeplace,투썸플레이스 수락산역점
37.4866986,127.1030996,twosomeplace,투썸플레이스 수서역점
37.6349103,127.0229092,twosomeplace,투썸플레이스 수유사거리점
37.545097,126.971987,twosomeplace,투썸플레이스 숙대입구역점
37.5624639,126.9706122,twosomeplace,투썸플레이스 순화동점
37.494839,126.9584533,twosomeplace,투썸플레이스 숭실대점
37.4541861,126.901205,twosomeplace,투썸플레이스 시흥사거리점
37.5062485,126.9139521,twosomeplace,투썸플레이스 신길점
37.6103313,127.0960772,twosomeplace,투썸플레이스 신내점
37.6157809,127.0937068,twosomeplace,투썸플레이스 신내홈플러스점
37.61448,127.113334,twosomeplace,투썸플레이스 신내SKV1센터점
37.5063275,126.8921134,twosomeplace,투썸플레이스 신도림 아름제일여성병원점
37.5090862,126.8893007,twosomeplace,투썸플레이스 신도림디큐브시티점
37.4707919,126.9353151,twosomeplace,투썸플레이스 신림녹두거리점
37.4854918,126.9297962,twosomeplace,투썸플레이스 신림로점
37.4854918,126.9297962,twosomeplace,투썸플레이스 신림역점
37.5672992,126.8169843,twosomeplace,투썸플레이스 신방화역점
37.5231937,127.0211019,twosomeplace,투썸플레이스 신사세로수길점
37.573209,127.0228748,twosomeplace,투썸플레이스 신설IBC호텔점
37.5603075,126.9808306,twosomeplace,투썸플레이스 신세계DF명동점
37.5176495,126.8419842,twosomeplace,투썸플레이스 신정뉴타운점
37.5583716,126.9374795,twosomeplace,투썸플레이스 신촌연세로점
37.6483467,127.0352006,twosomeplace,투썸플레이스 쌍문중앙점
37.5935881,127.0164977,twosomeplace,투썸플레이스 아리랑힐호텔점 
37.5715087,127.1037627,twosomeplace,투썸플레이스 아차산역점
37.4993399,127.0129213,twosomeplace,투썸플레이스 아크로비스타점
37.558248,127.1304539,twosomeplace,투썸플레이스 암사역점
37.5274583,127.0403043,twosomeplace,투썸플레이스 압구정로데오역점
37.531684,127.0302926,twosomeplace,투썸플레이스 압구정역점
37.554168,127.010039,twosomeplace,투썸플레이스 약수역점
37.4709472,127.0392094,twosomeplace,투썸플레이스 양재매헌역점
37.4731977,127.0381702,twosomeplace,투썸플레이스 양재사거리점
37.4824583,127.0356598,twosomeplace,투썸플레이스 양재역점
37.5172757,126.8652946,twosomeplace,투썸플레이스 양천구청점
37.5196853,126.8727799,twosomeplace,투썸플레이스 양천신목로점
37.5663735,126.8410156,twosomeplace,투썸플레이스 양천향교역점
37.547351,127.0727161,twosomeplace,투썸플레이스 어린이대공원역점
37.5511947,126.9881994,twosomeplace,투썸플레이스 엔타워점
37.5200722,126.9318875,twosomeplace,투썸플레이스 여의도롯데캐슬아이비점
37.5254692,126.9254109,twosomeplace,투썸플레이스 여의도씨지브이
37.4996002,127.0342881,twosomeplace,투썸플레이스 역삼성홍타워점
37.5023991,127.0380155,twosomeplace,투썸플레이스 역삼역점
37.4999072,127.0373932,twosomeplace,투썸플레이스 역삼자이점
37.4975267,127.0381455,twosomeplace,투썸플레이스 역삼점
37.618812,126.920842,twosomeplace,투썸플레이스 연신내점
37.5393656,126.8666552,twosomeplace,투썸플레이스 염창역점
37.5242657,126.8964831,twosomeplace,투썸플레이스 영등포구청역점
37.5391115,126.9033939,twosomeplace,투썸플레이스 영등포당산아리스타점
37.5204568,126.9030427,twosomeplace,투썸플레이스 영등포시장사거리점
37.5154133,126.9071288,twosomeplace,투썸플레이스 영등포역점
37.568498,126.9807348,twosomeplace,투썸플레이스 예금보험공사점
37.4789929,127.0116218,twosomeplace,투썸플레이스 예술의전당점
37.5437671,127.0142943,twosomeplace,투썸플레이스 옥수리버젠점
37.5416392,127.0177218,twosomeplace,투썸플레이스 옥수역점
37.5640428,126.985176,twosomeplace,투썸플레이스 올리브영본점
37.5206868,127.1214941,twosomeplace,투썸플레이스 올림픽공원역점
37.5708049,127.0327015,twosomeplace,투썸플레이스 용두아트리체점
37.5751661,127.0853125,twosomeplace,투썸플레이스 용마산역점
37.5296604,126.9647787,twosomeplace,투썸플레이스 용산아이파크몰점
37.5435097,126.9696097,twosomeplace,투썸플레이스 용산청파삼거리
37.5507383,126.9727203,twosomeplace,투썸플레이스 용산트윈시티점
37.548783,126.836334,twosomeplace,투썸플레이스 우장산역
37.601925,127.04153,twosomeplace,투썸플레이스 월곡역 코업스타점
37.6026957,126.9291119,twosomeplace,투썸플레이스 은평구청점
37.6026957,126.9291119,twosomeplace,투썸플레이스 은평뉴타운점
37.6026957,126.9291119,twosomeplace,투썸플레이스 은평이마트점
37.6422496,126.9393745,twosomeplace,투썸플레이스 은평한옥마을점
37.5652257,126.9834385,twosomeplace,투썸플레이스 을지로입구역점
37.566045,126.9933297,twosomeplace,투썸플레이스 을지로점
37.5571925,126.9456273,twosomeplace,투썸플레이스 이대역점
37.534542,126.994596,twosomeplace,투썸플레이스 이태원역점
37.5078871,127.0880062,twosomeplace,투썸플레이스 잠실3단지점
37.5150469,127.1019365,twosomeplace,투썸플레이스 잠실역점
37.572295,127.0748317,twosomeplace,투썸플레이스 장안동사거리점
37.5833567,127.0367969,twosomeplace,투썸플레이스 제기동역점
37.5637091,127.0030113,twosomeplace,투썸플레이스 제일제당사옥점
37.5698122,126.9810525,twosomeplace,투썸플레이스 종로 알파빌딩점
37.5710834,127.0001239,twosomeplace,투썸플레이스 종로5가역점
37.5729503,126.9793579,twosomeplace,투썸플레이스 종로구청점
37.6001709,127.031602,twosomeplace,투썸플레이스 종암점
37.6492765,127.0769298,twosomeplace,투썸플레이스 중계은행사거리점
37.5587857,126.972387,twosomeplace,투썸플레이스 중구YTN점
37.507612,127.0340254,twosomeplace,투썸플레이스 차병원사거리점
37.6524908,127.0504494,twosomeplace,투썸플레이스 창동역점
37.6520293,127.0467461,twosomeplace,투썸플레이스 창동이마트점
37.5439937,127.1256452,twosomeplace,투썸플레이스 천호로데오점
37.448215,127.054726,twosomeplace,투썸플레이스 청계산입구역점
37.5688235,126.9827408,twosomeplace,투썸플레이스 청계천광교
37.5192086,127.0504638,twosomeplace,투썸플레이스 청담역점
37.5611094,126.9948016,twosomeplace,투썸플레이스 충무로역점
37.5609242,126.9669152,twosomeplace,투썸플레이스 충정로센트럴플레이스
37.4910767,127.0302692,twosomeplace,투썸플레이스 파이낸셜뉴스빌딩점
37.5230968,127.0391037,twosomeplace,투썸플레이스 학동사거리점
37.5884459,127.0065054,twosomeplace,투썸플레이스 한성대입구역점
37.469824,126.89589,twosomeplace,투썸플레이스 현대지식산업센터점
37.585315,127.0006442,twosomeplace,투썸플레이스 혜화로타리점
37.5574388,126.923412,twosomeplace,투썸플레이스 홍대입구역점
37.5564405,126.9226104,twosomeplace,투썸플레이스 홍대CGV
37.5861152,126.946972,twosomeplace,투썸플레이스 홍제삼거리점
37.5381184,126.8471024,twosomeplace,투썸플레이스 화곡역점
37.5664602,127.0211337,twosomeplace,투썸플레이스 황학 신당역점
37.5901728,127.057551,twosomeplace,투썸플레이스 휘경점
37.5456582,127.1422439,twosomeplace,투썸플레이스 CGV천호
37.4689787,126.9879763,twosomeplace,투썸플레이스 CJ ENM커머스부문점
37.554569,126.9759606,twosomeplace,투썸플레이스 CJ더센터점
37.566045,126.9933297,twosomeplace,투썸플레이스 KT&G 을지로타워점
37.5693066,126.9715349,twosomeplace,투썸플레이스 LG광화문빌딩점
37.5820002,126.8882379,twosomeplace,투썸플레이스 LG헬로비전점
37.4758795,126.8838298,ediya,이디야 가산에이스점
37.4676516,126.7060758,ediya,이디야 가산오거리점
37.5648322,126.8342406,ediya,이디야 가양역점
37.5172363,127.0473248,ediya,이디야 강남대치점
37.522336,127.031173,ediya,이디야 강남도산점
37.5038594,127.0033439,ediya,이디야 강남센트럴시티점
37.4720063,127.1104558,ediya,이디야 강남율현점
37.5412163,127.1497531,ediya,이디야 강동신명초교점
37.5369023,127.1302611,ediya,이디야 강동역점
37.5648322,126.8342406,ediya,이디야 강서가양동점
37.5665439,126.8493431,ediya,이디야 강서한강자이
37.4941792,126.8583787,ediya,이디야 개봉역점
37.48641,126.8548809,ediya,이디야 개봉중앙점
37.4918637,126.8555982,ediya,이디야 개봉현대점
37.539,127.0712949,ediya,이디야 건대스타시티점
37.5770806,126.9718247,ediya,이디야 경복궁역점
37.557774,127.1639117,ediya,이디야 고덕그라시움후문점
37.5594375,127.1476045,ediya,이디야 고덕래미안힐스점
37.530009,126.8383175,ediya,이디야 곰달래사거리점
37.6304778,127.0901988,ediya,이디야 공릉역점
37.623043,127.0795195,ediya,이디야 공릉중앙점
37.5623155,126.8086965,ediya,이디야 공항시장역점
37.5031784,126.8820367,ediya,이디야 구로역광장점
37.481088,126.8250625,ediya,이디야 구로항동지구점
37.4954031,126.887369,ediya,이디야 구로NC점
37.5466951,127.0914159,ediya,이디야 구의동점
37.5382416,127.0892961,ediya,이디야 구의역점
37.4950273,126.872004,ediya,이디야 구일역점
37.6111263,127.0003764,ediya,이디야 국민대점
37.5302939,126.9199036,ediya,이디야 국회대로점
37.5392074,127.1461206,ediya,이디야 길동사거리점
37.5392074,127.1461206,ediya,이디야 길동역점
37.5317675,126.8467055,ediya,이디야 까치산역
37.6170531,127.0348824,ediya,이디야 꿈의숲해링턴점
37.481794,126.9145059,ediya,이디야 난곡사거리점
37.4607674,126.9193864,ediya,이디야 난향동점
37.5546422,126.834636,ediya,이디야 내발산점
37.4875268,126.9941918,ediya,이디야 내방역점
37.5069497,126.9362749,ediya,이디야 노량진스퀘어점
37.514082,126.941687,ediya,이디야 노량진역사
37.6541917,127.056793,ediya,이디야 노원KT점
37.5696589,127.0576058,ediya,이디야 답십리역점
37.6707862,127.0803617,ediya,이디야 당고개역점
37.488823,126.92868,ediya,이디야 당곡사거리
37.5259376,126.9088132,ediya,이디야 당산버드나루점
37.4948334,126.9008495,ediya,이디야 대림1동점
37.5817834,127.0031055,ediya,이디야 대학로점
37.54746,126.942357,ediya,이디야 대흥역점
37.5085713,126.8965694,ediya,이디야 도림점
37.6687738,127.0470706,ediya,이디야 도봉구청점
37.6567466,127.0388047,ediya,이디야 도봉보건소사거리점
37.5996114,127.0134558,ediya,이디야 돈암아리랑점
37.5607387,126.9995322,ediya,이디야 동국대후문점
37.5743682,127.0400189,ediya,이디야 동대문점
37.5161216,126.9660695,ediya,이디야 동부이촌동점
37.5340985,127.0922113,ediya,이디야 동서울터미널점
37.5939763,127.0105212,ediya,이디야 동소문동점
37.5272032,127.144105,ediya,이디야 둔촌점
37.5360455,126.8631085,ediya,이디야 등촌중앙점
37.5526355,126.826665,ediya,이디야 마곡수명산점
37.5647598,126.902583,ediya,이디야 마포구청점
37.5548886,126.9639515,ediya,이디야 만리동고개점
37.6097015,127.0768818,ediya,이디야 먹골역점
37.5394371,126.86612,ediya,이디야 목4동점
37.5370192,126.8735297,ediya,이디야 목동남부점
37.5400345,126.8628887,ediya,이디야 목동등촌로점
37.5369691,126.8714743,ediya,이디야 목동신목점
37.5370192,126.8735297,ediya,이디야 목동신트리점
37.5370192,126.8735297,ediya,이디야 목동중앙점
37.5831136,126.9497196,ediya,이디야 무악재역점
37.6113617,127.0787546,ediya,이디야 묵동자이점
37.4864701,127.1263126,ediya,이디야 문정중앙점
37.5031833,127.0079167,ediya,이디야 반포지하상가점
37.5579802,126.8383984,ediya,이디야 발산역점
37.5118007,127.1137457,ediya,이디야 방이시장점
37.6629131,127.0424327,ediya,이디야 방학사거리점
37.669757,127.0425203,ediya,이디야 방학역점
37.66747,127.044295,ediya,이디야 방학점
37.6657273,127.0352862,ediya,이디야 방학중앙점
37.5781138,126.8132908,ediya,이디야 방화역점
37.5801932,127.0661224,ediya,이디야 배봉초교사거리점
37.496767,126.9166468,ediya,이디야 보라매공원점
37.499929,126.920282,ediya,이디야 보라매역
37.5287781,127.1431444,ediya,이디야 보훈병원점
37.4794085,126.9535822,ediya,이디야 봉천역점
37.6163947,127.0926039,ediya,이디야 봉화산역점
37.5793517,126.9826905,ediya,이디야 북촌마을점
37.580966,127.088503,ediya,이디야 사가정아이파크점
37.476559,126.981633,ediya,이디야 사당역점
37.475496,126.9812655,ediya,이디야 사당점
37.475496,126.9812655,ediya,이디야 사당중앙점
37.5350315,126.9734515,ediya,이디야 삼각지역점
37.5128889,127.0526509,ediya,이디야 삼성중앙점
37.621341,127.020507,ediya,이디야 삼양사거리점
37.6284519,127.0214065,ediya,이디야 삼양시장점
37.5687424,126.9867265,ediya,이디야 삼일빌딩점
37.499214,126.9514712,ediya,이디야 상도역점
37.602638,126.955252,ediya,이디야 상명대점
37.5756558,126.8977097,ediya,이디야 상암한샘점
37.5796427,126.8896722,ediya,이디야 상암DMC점
37.5516659,126.9373157,ediya,이디야 서강대점
37.5287939,126.9235334,ediya,이디야 서여의도점
37.566535,126.9779692,ediya,이디야 서울여대점
37.6033379,127.0944849,ediya,이디야 서울중화초등학교점
37.6137521,127.0649262,ediya,이디야 석계중앙점
37.6084827,127.0609186,ediya,이디야 석관동점
37.6573275,127.0282084,ediya,이디야 선덕고사거리점
37.5034961,127.0508263,ediya,이디야 선릉점
37.5937037,127.016072,ediya,이디야 성신여대역점
37.5518018,127.0736345,ediya,이디야 세종대후문점
37.504609,127.1119305,ediya,이디야 송파동점
37.4896023,127.1187913,ediya,이디야 송파올림픽훼미리타운점
37.6343884,127.0229077,ediya,이디야 수유사거리점
37.5330587,127.0059327,ediya,이디야 순천향병원점
37.5752518,127.0215847,ediya,이디야 숭인점
37.3798877,126.8031025,ediya,이디야 시흥유통센터점
37.512096,126.9216988,ediya,이디야 신길성애병원점
37.496429,126.9086066,ediya,이디야 신길썬프라자
37.5062485,126.9139521,ediya,이디야 신길역점
37.5121582,126.9165036,ediya,이디야 신길중앙점
37.6103313,127.0960772,ediya,이디야 신내동점
37.5135304,127.0315341,ediya,이디야 신논현역점
37.4986255,126.9277263,ediya,이디야 신대방삼거리점
37.5070431,126.8902185,ediya,이디야 신도림테크노마트점
37.4816274,126.9152003,ediya,이디야 신림난곡점
37.4868747,126.9259442,ediya,이디야 신림대학동점
37.4754552,126.9361887,ediya,이디야 신림신화교점
37.4626176,126.9383251,ediya,이디야 신림역점
37.4842993,126.9266142,ediya,이디야 신림중앙점
37.4870714,126.9270045,ediya,이디야 신림패션문화점
37.564979,126.827427,ediya,이디야 신방화역점
37.524124,127.022883,ediya,이디야 신사점
37.575326,127.0248495,ediya,이디야 신설동역점
37.5391278,126.8274379,ediya,이디야 신월5동점
37.5358414,126.8283183,ediya,이디야 신월사거리점
37.5182621,126.8426399,ediya,이디야 신월신곡시장점
37.5249251,126.854642,ediya,이디야 신정역점
37.6388915,127.0380921,ediya,이디야 신창점
37.4999047,126.9117746,ediya,이디야 신풍역점
37.6522545,127.0304855,ediya,이디야 쌍문역점
37.6522545,127.0304855,ediya,이디야 쌍문중앙점
37.558248,127.1304539,ediya,이디야 암사역점
37.5516267,127.1348226,ediya,이디야 암사중앙점
37.554347,127.011001,ediya,이디야 약수역점
37.606639,127.108067,ediya,이디야 양원역점
37.4731977,127.0381702,ediya,이디야 양재하나로마트점
37.5168721,126.8663985,ediya,이디야 양천구청점
37.5219838,126.930031,ediya,이디야 여의도농협재단점
37.5295808,126.9326803,ediya,이디야 여의도역점
37.5540319,126.8717993,ediya,이디야 염창동점
37.5263715,126.8962283,ediya,이디야 영등포구청점
37.5146657,126.8984728,ediya,이디야 영등포에이스점
37.5263715,126.8962283,ediya,이디야 영등포점
37.5193148,126.9046511,ediya,이디야 영등포중앙점
37.5181504,126.8958956,ediya,이디야 영등포홈플러스점
37.492994,127.112326,ediya,이디야 오금점
37.5645748,127.0001136,ediya,이디야 오장동점
37.5435935,127.0134664,ediya,이디야 옥수동점
37.5244902,127.1288855,ediya,이디야 올림픽북문점
37.5757009,127.034989,ediya,이디야 용두동사거리점
37.5254333,126.9646879,ediya,이디야 용산중앙점
37.5451036,126.9659315,ediya,이디야 용산청파점
37.4651959,127.0164423,ediya,이디야 우면동점
37.547128,126.8436128,ediya,이디야 우장산동점
37.6058335,127.0309281,ediya,이디야 월곡중앙점
37.6504368,127.0777536,ediya,이디야 은행사거리점
37.5196803,127.0281326,ediya,이디야 을지사거리
37.6003893,126.9202568,ediya,이디야 이마트은평점
37.6031045,127.064235,ediya,이디야 이문점
37.5324005,127.0715809,ediya,이디야 자양동점
37.5061273,127.0842945,ediya,이디야 잠실본동점
37.52016,127.103765,ediya,이디야 잠실월드점
37.570627,127.0706515,ediya,이디야 장안동점
37.5674947,127.0707583,ediya,이디야 장안중랑천점
37.5806425,127.0709617,ediya,이디야 장안중앙점
37.6137226,127.0621096,ediya,이디야 장위2동점
37.6156087,127.0507954,ediya,이디야 장위동점
37.6144277,127.0407678,ediya,이디야 장위중앙점
37.5750329,127.0496055,ediya,이디야 전농뉴타운점
37.577812,127.059,ediya,이디야 전농사거리점
37.6021121,127.0061045,ediya,이디야 정릉뉴타운점
37.599785,127.0193858,ediya,이디야 정릉아리랑점
37.6144929,127.0002306,ediya,이디야 정릉점
37.6046666,127.0119116,ediya,이디야 정릉중앙점
37.5653685,126.9896351,ediya,이디야 종로3가점
37.5723555,126.9818018,ediya,이디야 종로구청점
37.6467767,127.0727636,ediya,이디야 중계롯데우성점
37.6514398,127.0831273,ediya,이디야 중계본동점
37.6400147,127.0642892,ediya,이디야 중계브라운스톤점
37.6521367,127.0723076,ediya,이디야 중계중앙점
37.5626197,127.0853672,ediya,이디야 중곡대원점
37.5569838,127.0877098,ediya,이디야 중곡신성점
37.6436098,127.039128,ediya,이디야 창동대우점
37.6487061,127.0525283,ediya,이디야 창동제일점
37.6525232,127.0463148,ediya,이디야 창동중앙점
37.6548907,127.051721,ediya,이디야 창동하나로마트점
37.6550904,127.0433286,ediya,이디야 창동학원가점
37.5439937,127.1256452,ediya,이디야 천호역점
37.5467973,127.1346829,ediya,이디야 천호초교사거리
37.4484375,127.0554375,ediya,이디야 청계산입구역점
37.581381,127.048958,ediya,이디야 청량리점
37.4791717,126.9452559,ediya,이디야 청룡중앙점
37.486491,126.981876,ediya,이디야 총신대입구역점
37.5727301,127.0662663,ediya,이디야 촬영소사거리점
37.5651176,126.99278,ediya,이디야 충무로점
37.5104556,127.0328766,ediya,이디야 커피랩
37.6195756,127.077871,ediya,이디야 태릉입구역점
37.6402321,127.0727435,ediya,이디야 하계온천점
37.6358505,127.0711596,ediya,이디야 하계을지점
37.6041779,127.0409997,ediya,이디야 하월곡동점
37.523129,126.9105655,ediya,이디야 한강성심병원점
37.5614031,126.9789515,ediya,이디야 한국은행점
37.5822608,127.0094254,ediya,이디야 한성대역점
37.5599816,127.0415033,ediya,이디야 한양대점
37.5487627,126.9101333,ediya,이디야 합정역점
37.5463089,126.9101219,ediya,이디야 합정LIG점
37.5058114,126.9343468,ediya,이디야 해군회관점
37.5612833,127.0345304,ediya,이디야 행당동점
37.586755,127.0003554,ediya,이디야 혜화동로터리
37.5457288,126.8474016,ediya,이디야 화곡중앙점
37.5707655,127.022886,ediya,이디야 황학롯데캐슬점
37.5899254,127.0606026,ediya,이디야 회기역점
37.589756,127.057977,ediya,이디야 회기역중앙점
37.5664541,126.9865526,ediya,이디야 IBK고객센터
35.538395,129.2582145,ediya,이디야 월계초교점
37.6269138,127.0796292,ediya,이디야 원자력병원점
37.5815036,126.8872557,ediya,이디야 우리기술점
37.5495172,126.9776594,ediya,이디야 용산후암점
37.5384272,126.9654442,ediya,이디야 용산원효점
37.4977538,127.6039525,ediya,이디야 용문점
37.5162001,127.1098021,ediya,이디야 올림픽공원점
37.5250374,126.8730535,ediya,이디야 오목교대학학원점
37.523923,126.9059749,ediya,이디야 영등포아크로타워점
37.5263715,126.8962283,ediya,이디야 영등포본동점
37.5260163,126.9307571,ediya,이디야 여의나루역점
37.5741948,127.0214683,ediya,이디야 에스프레소신설점
37.5355702,126.8787085,ediya,이디야 에스프레소
37.5243251,126.8837313,ediya,이디야 양평동2가점
37.484324,127.03055,ediya,이디야 양재점
37.5188009,126.8737695,ediya,이디야 신정교점
37.5223947,126.8329818,ediya,이디야 신월7동점
37.5062485,126.9139521,ediya,이디야 신길아이파크점
37.6366808,127.0684246,ediya,이디야 세이브존노원점
37.5451437,127.0578284,ediya,이디야 성수아카데미점
37.5371206,127.0550961,ediya,이디야 성수2가점
37.5668827,126.9652845,ediya,이디야 서대문점 2호
37.6748028,127.0730618,ediya,이디야 상계역사거리점
37.5370192,126.8735297,ediya,이디야 목동파라곤점
37.5260462,126.8628734,ediya,이디야 목동역점
37.5468869,126.8672611,ediya,이디야 목3동점
37.5027173,126.8629106,ediya,이디야 메르디앙고척점
37.5558962,126.8998389,ediya,이디야 망원중앙점
37.5563256,126.9101884,ediya,이디야 망원역점
37.6000262,127.1068617,ediya,이디야 망우동점
37.5429247,126.9478595,ediya,이디야 마포데시앙점
37.5196187,126.93912,ediya,이디야 라이프점
37.531544,127.066708,ediya,이디야 뚝섬유원지역점
37.558653,126.8532512,ediya,이디야 등촌3동점
37.5743682,127.0400189,ediya,이디야 동대문구청점
37.5576862,126.923487,ediya,이디야 동교동점
37.512849,126.9283252,ediya,이디야 대방역점
37.4925405,126.8959604,ediya,이디야 대림역점
37.4995567,126.8981452,ediya,이디야 대림3동점
37.3218778,126.8308848,ediya,이디야 당산중앙점
37.5696589,127.0576058,ediya,이디야 답십리파크자이점
37.6568057,127.0669206,ediya,이디야 노원중앙점
37.6529076,127.0605347,ediya,이디야 노원사거리
37.5244551,126.8915347,ediya,이디야 남부고용센터점
37.5469135,126.8479632,ediya,이디야 까치산로점
37.5268293,126.91783,ediya,이디야 국회의사당역점
37.537153,127.086152,ediya,이디야 구의자양로점
37.547478,126.931855,ediya,이디야 광흥창역
37.54322,126.951576,ediya,이디야 공덕점
37.590403,127.035926,ediya,이디야 고대점
37.2429616,127.0800525,ediya,이디야 경희대캠퍼스점
37.591867,127.0525122,ediya,이디야 경희대점
37.5464057,127.0755739,ediya,이디야 건대역점
37.49797,127.135085,ediya,이디야 개롱역점
37.5502707,126.848761,ediya,이디야 강서점
37.5548971,126.8558599,ediya,이디야 강서교차로점
37.5301251,127.123762,ediya,이디야 강동구청점
37.4692712,127.1073203,ediya,이디야 강남세곡점
37.575806,126.9567685,ediya,이디야 독립문역점
37.610493,127.056403,ediya,이디야 들곶이역점
37.5472149,127.1545738,ediya,이디야 명일중앙점
37.5017467,126.9901286,ediya,이디야 구반포역점
37.5590809,126.9805937,ediya,이디야 회현SK리더스점
37.5345467,126.8378551,ediya,이디야 화곡중앙시장점
37.5555692,126.9206333,ediya,이디야 홍대청기와점
37.1933281,127.0225987,ediya,이디야 한신대점
37.4816349,126.8418958,ediya,이디야 천왕이펜하우스점
37.6086912,126.9269617,ediya,이디야 녹번중앙점
37.5723136,127.0716825,ediya,이디야 장안동사거리점
37.5326803,127.0758338,ediya,이디야 자양우성점
37.5998561,126.9154719,ediya,이디야 응암역점
37.4765682,127.1347366,ediya,이디야 위례 포레샤인점
37.6155498,127.066187,ediya,이디야 월계인덕점
37.565183,127.024985,ediya,이디야 왕십리 센트라스점
37.5235593,126.8757535,ediya,이디야 오목교역점
37.5089587,126.9202027,ediya,이디야 영등포그랜드점
37.5215126,126.8525663,ediya,이디야 신정네거리역점
33.3810625,126.8767558,ediya,이디야 성산점
37.456613,127.0162785,ediya,이디야 서초우면중앙점
37.5810983,127.0881584,ediya,이디야 사가정점
37.660833,126.993333,ediya,이디야 북한산점
37.5784186,126.9099561,ediya,이디야 북가좌동점
37.5169837,126.8993953,ediya,이디야 문래역점
37.6842049,127.0448504,ediya,이디야 도봉중앙점
37.4903375,126.9080654,ediya,이디야 대림성모점
37.5128665,126.947914,ediya,이디야 노들점
37.5146657,126.8984728,ediya,이디야 구로에이스점
37.5384843,127.0822938,ediya,이디야 광진구청점
37.538557,127.0729616,ediya,이디야 건대스타시티2호점
37.5664541,126.9865526,ediya,이디야 IBK본점
37.5282135,126.8749471,ediya,이디야 CBS점
37.5050871,126.9108908,ediya,이디야 힐스테이트 클래시안점
37.6194506,127.0841605,ediya,이디야 화랑대역점
37.5345467,126.8378551,ediya,이디야 화곡본동시장점
37.5488694,126.8451583,ediya,이디야 화곡로점
37.53387,126.8583432,ediya,이디야 화곡남부시장점
37.5855112,126.9489831,ediya,이디야 홍제점
37.5871322,126.9319759,ediya,이디야 홍은사거리점
37.5515814,126.9249751,ediya,이디야 홍익대점
37.5287939,126.9235334,ediya,이디야 한국수출입은행점
37.5149606,127.0331072,ediya,이디야 학동역점
37.475593,127.0445372,ediya,이디야 포이점
37.558339,126.829802,ediya,이디야 파인스퀘어점
37.5755279,126.9800596,ediya,이디야 트윈트리타워점
37.5664459,127.030702,ediya,이디야 텐즈힐점
37.5711455,126.9883295,ediya,이디야 탑골공원점
37.5977195,127.0932913,ediya,이디야 상봉엠코점
37.483606,127.0342984,ediya,이디야 양재중앙점
37.5381184,126.8471024,ediya,이디야 화곡사거리점
37.6170165,126.9226896,ediya,이디야 연신내 중앙점
37.6288395,127.0398598,ediya,이디야 번동점
37.6325531,127.028027,ediya,이디야 미아송천점
37.618397,126.933056,ediya,이디야 독바위역점
37.5861434,127.0100007,ediya,이디야 한성대점
37.641432,127.0165204,ediya,이디야 신수유역점
37.5627927,126.8240989,ediya,이디야 마곡엠밸리점
37.5131659,126.9379137,ediya,이디야 노량진CTS점
37.4903706,127.0816125,ediya,이디야 일원동점
37.5394574,127.1259003,ediya,이디야 천호현대점
37.5439937,127.1256452,ediya,이디야 천호중앙점
37.5705613,127.002241,ediya,이디야 종로교차로점
37.5793895,126.9653816,ediya,이디야 배화여대점
37.5556203,127.0247986,ediya,이디야 논골사거리점
37.6478542,127.0142169,ediya,이디야 4.19사거리점
37.6119567,126.9176102,ediya,이디야 구산역점
37.5641437,126.8106696,ediya,이디야 방화동로점
37.4521586,126.9060353,ediya,이디야 은행나무사거리점
37.4492857,126.9104662,ediya,이디야 시흥동점
37.492794,126.9904426,ediya,이디야 함지박사거리점
37.5622214,126.9909515,ediya,이디야 충무로3가점
37.4886232,126.9668169,ediya,이디야 총신대점
37.5597511,127.0132283,ediya,이디야 청구역점
37.5719863,127.0129084,ediya,이디야 창신점
37.6470538,127.0351561,ediya,이디야 창동현대타운점
37.6605123,127.049623,ediya,이디야 창동블루핀점
37.5995064,127.0778661,ediya,이디야 중화동점
37.5607773,126.9682129,ediya,이디야 중림점
37.5913937,127.0798713,ediya,이디야 중랑교차로점
37.6065602,127.0926519,ediya,이디야 중랑경찰서점
37.5115758,127.0793248,ediya,이디야 종합운동장역점
37.5683521,126.9977466,ediya,이디야 종로4가점
37.561472,127.064657,ediya,이디야 장한평 군자초교점
37.6156087,127.0507954,ediya,이디야 장위뉴타운점
37.5135304,127.0315341,ediya,이디야 잠원논현점
37.4746876,126.9670201,ediya,이디야 인헌점
37.561396,126.9467783,ediya,이디야 이화여대점
37.4846165,126.9791799,ediya,이디야 이수중앙점
37.5883825,126.9165577,ediya,이디야 응암중앙점
37.5878625,126.9163889,ediya,이디야 응암오거리점
37.5505499,127.0341139,ediya,이디야 응봉동점
37.606215,127.0456787,ediya,이디야 월곡동아점
37.5478163,126.8358119,ediya,이디야 우장산역점
37.6626046,127.0113765,ediya,이디야 우이역도선사점
37.5419889,127.0167737,ediya,이디야 옥수역점
37.4966004,126.838513,ediya,이디야 오류북부역점
37.4926091,126.8437777,ediya,이디야 오류남부점
37.4833916,127.0121078,ediya,이디야 예술의전당점
37.526441,126.9041253,ediya,이디야 영등포knk점
37.556904,126.8642901,ediya,이디야 염창블루나인
37.6211624,126.9202577,ediya,이디야 연신내통일로점
37.618812,126.920842,ediya,이디야 연신내역점
37.49579,127.0405164,ediya,이디야 역삼점
37.49579,127.0405164,ediya,이디야 역삼역점
37.4851258,126.8787246,ediya,이디야 에이스가산포휴점
37.6183087,126.9390451,ediya,이디야 불광역점
37.4716597,127.0454069,ediya,이디야 양재언남점
37.6030497,127.107406,ediya,이디야 양원남부점
37.5328218,127.0280273,ediya,이디야 압구정 현대점
37.5544215,127.1407186,ediya,이디야 암사3동점
37.5577978,126.9554328,ediya,이디야 아현역점
37.6522545,127.0304855,ediya,이디야 쌍문동점
37.4713136,126.9032798,ediya,이디야 쌈지공원점
37.5121775,126.8383361,ediya,이디야 신정서부점
37.500229,126.9441688,ediya,이디야 신상도초교점
37.567513,126.817353,ediya,이디야 신방화중앙점
37.4764845,126.9159549,ediya,이디야 신림미성점
37.478521,126.9326948,ediya,이디야 신림문화교점
37.4833193,126.9219043,ediya,이디야 신림남부초교점
37.480639,126.927934,ediya,이디야 신림신원점
37.509516,126.8820471,ediya,이디야 신도림메르디앙점
37.5655464,127.0223081,ediya,이디야 신당중앙점
37.3798877,126.8031025,ediya,이디야 시흥사거리점
37.5658127,126.9791361,ediya,이디야 시청점
37.6393061,127.0266927,ediya,이디야 수유역점
37.677881,127.055293,ediya,이디야 수락산역점
37.5611369,126.8099466,ediya,이디야 송정역점
37.4582394,126.9056093,ediya,이디야 세광교회점
37.5442438,127.0552721,ediya,이디야 성수중앙점
37.5448163,127.0622133,ediya,이디야 성수우리W타워
37.4877355,126.825157,ediya,이디야 성공회대점
37.5096263,127.0426871,ediya,이디야 선정릉역점
37.505833,127.047994,ediya,이디야 선릉역점
37.503517,127.1035697,ediya,이디야 석촌사거리점
37.4340449,126.9048803,ediya,이디야 석수푸르지오점
37.4837121,127.0324112,ediya,이디야 서초역점
37.4837121,127.0324112,ediya,이디야 서초법조타운점
37.520818,126.9698327,ediya,이디야 서울삼성내과점
37.489737,127.014099,ediya,이디야 서울교대점
37.628831,127.0763745,ediya,이디야 서울과기대점
37.5054942,127.006719,ediya,이디야 서울고속버스터미널점
37.5793331,126.9239019,ediya,이디야 서아점
37.5668827,126.9652845,ediya,이디야 서대문점
37.5791158,126.9367789,ediya,이디야 서대문구청점
37.5965958,127.0873349,ediya,이디야 상봉중앙점
37.6754112,127.0555125,ediya,이디야 상계중앙점
37.5027433,127.0957873,ediya,이디야 삼전역점
37.5002758,127.0630181,ediya,이디야 삼성대치점
37.6122507,126.9315773,ediya,이디야 불광중앙점
37.627334,127.0379897,ediya,이디야 북서울꿈의숲점
37.4863629,126.9379113,ediya,이디야 봉일시장점
37.4939996,126.927872,ediya,이디야 보라매중앙점
37.5894444,126.9269444,ediya,이디야 백련산아이파크점
37.5731229,126.8117935,ediya,이디야 방화사거리점
37.4799348,126.9934602,ediya,이디야 방배중앙점
37.4799348,126.9934602,ediya,이디야 방배역점
37.4799348,126.9934602,ediya,이디야 방배백석점
37.4484646,126.9030913,ediya,이디야 박미삼거리점
37.5193016,126.8523026,ediya,이디야 목동아델리체점
37.5162883,126.841753,ediya,이디야 목동센트럴아이파크위브점
37.5370192,126.8735297,ediya,이디야 목동로데오점
37.55131,127.144014,ediya,이디야 명일역점
37.5742279,127.0805033,ediya,이디야 면목경남아너스빌점
37.5975871,127.0943385,ediya,이디야 망우중앙점
37.5397451,126.9453575,ediya,이디야 마포오벨리스크점
37.665375,127.057614,ediya,이디야 마들역
37.569266,126.826403,ediya,이디야 마곡헤리움점
37.559538,126.8357806,ediya,이디야 마곡퀸즈파크9점
37.5599737,126.8291801,ediya,이디야 마곡역점
37.5671482,126.827006,ediya,이디야 마곡나루역점
37.558653,126.8532512,ediya,이디야 등촌역점
37.558653,126.8532512,ediya,이디야 등촌동점
37.569424,127.0132438,ediya,이디야 동평화점
37.5735046,127.0309651,ediya,이디야 동부병원사거리점
37.5801499,127.0151974,ediya,이디야 동묘역점
37.6068163,127.0423832,ediya,이디야 동덕여대점
37.5718229,127.0080338,ediya,이디야 동대문역점
37.4681147,126.8981937,ediya,이디야 독산동점
37.5215413,127.0338265,ediya,이디야 도산사거리점
37.6891763,127.0461302,ediya,이디야 도봉산점
37.5067385,126.901353,ediya,이디야 도림사거리
37.5728688,127.057406,ediya,이디야 답십리사거리점
37.5678216,126.9817119,ediya,이디야 다동점
37.514236,127.031593,ediya,이디야 논현학동점
37.4713883,126.9824267,ediya,이디야 남현홈플러스점
37.4837726,126.9734022,ediya,이디야 남성역점
37.4846913,127.0188535,ediya,이디야 남부터미널점
37.477862,126.9621916,ediya,이디야 낙성대역점
37.6102252,127.0298456,ediya,이디야 길음중앙점
37.6073126,127.023926,ediya,이디야 길음뉴타운점
37.5365399,127.1458692,ediya,이디야 길동중앙점
37.4518527,126.9020358,ediya,이디야 금천롯데마트점
37.497689,127.0028333,ediya,이디야 국립중앙도서관 본관점
37.497689,127.0028333,ediya,이디야 국립중앙도서관 디지털관점
37.6413466,126.9421897,ediya,이디야 구파발역점
37.4900511,126.8920236,ediya,이디야 구로중앙점
37.5061515,126.8766478,ediya,이디야 구로미성점
37.484317,126.897924,ediya,이디야 구로이마트점
37.4862927,126.8912288,ediya,이디야 구로디지털점
37.5003075,126.8289067,ediya,이디야 구로궁동점
37.5011414,126.8625002,ediya,이디야 구로고척점
37.4782389,127.0398035,ediya,이디야 교육개발원사거리점
37.4784063,126.9516133,ediya,이디야 관악농협하나로마트점
37.5585025,126.8239775,ediya,이디야 서울공진초교점
37.5011414,126.8625002,ediya,이디야 고척스카이돔점
37.5057472,126.8582376,ediya,이디야 고척사거리점
37.4922173,126.8849478,ediya,이디야 고대병원구로점
37.5858389,127.0306861,ediya,이디야 고대개운점
37.572345,126.8068476,ediya,이디야 개화산역점
37.4789643,127.0609282,ediya,이디야 개포역점
37.5599265,126.8405125,ediya,이디야 강서NC점
37.474172,127.0950243,ediya,이디야 강남자곡점
37.5164665,127.0404191,ediya,이디야 강남구청역 아이티웨딩점
37.6219431,126.9127496,ediya,이디야 갈현점
37.5728384,126.9123903,ediya,이디야 가재울점
37.5695367,126.9168637,ediya,이디야 가재울 중앙점
37.4758795,126.8838298,ediya,이디야 가산SK V1
37.468635,126.8872075,ediya,이디야 가산하이엔드10차점
37.4767039,126.8857798,ediya,이디야 가산벽산점
37.4810157,126.8862031,ediya,이디야 가산리더스타워점
37.4746528,126.8822218,ediya,이디야 가산대륭19차점
37.4979629,127.1465384,ediya,이디야 마천사거리점
37.5771186,126.9019154,ediya,이디야 증산동점
37.5781711,126.894616,ediya,이디야 상암KBS점
37.5665592,127.1737804,ediya,이디야 강일점
37.5439937,127.1256452,ediya,이디야 천호로데오점
37.588227,126.993606,ediya,이디야 성균관대점
37.5790986,127.0027894,ediya,이디야 방통대점
37.5728457,126.9884126,ediya,이디야 낙원동점
37.5707661,126.9795234,ediya,이디야 종로르메이에르점
37.5600911,126.9955787,ediya,이디야 충무필동점
37.5364771,126.9584231,ediya,이디야 원효로점
37.561949,127.038485,ediya,이디야 왕십리역점
37.549363,127.0818126,ediya,이디야 어린이대공원점
37.5588993,127.0807302,ediya,이디야 중곡중앙점
37.540361,127.0675997,ediya,이디야 건대로데오점
37.5464057,127.0755739,ediya,이디야 건대후문점
37.5960169,127.0834048,ediya,이디야 상봉역점
37.595272,127.0993536,ediya,이디야 우림시장점
37.6000262,127.1068617,ediya,이디야 금란망우점
37.6529076,127.0605347,ediya,이디야 동원사거리점
37.6038649,127.0442115,ediya,이디야 월곡1동점
37.6005277,127.023636,ediya,이디야 돈암동점
37.5994896,127.0339384,ediya,이디야 종암동점
37.6270186,127.0254629,ediya,이디야 미아역점
37.6204284,127.0287354,ediya,이디야 미아중앙점
37.6687738,127.0470706,ediya,이디야 도봉역점
37.6598008,127.0756284,ediya,이디야 상계역점
37.6026957,126.9291119,ediya,이디야 은평뉴타운점
37.6111396,126.9169368,ediya,이디야 구산사거리점
37.6183087,126.9390451,ediya,이디야 불광연서로점
37.5818859,126.8963113,ediya,이디야 수색역점
37.6086912,126.9269617,ediya,이디야 녹번동점
37.5682728,126.9318184,ediya,이디야 연희삼거리점
37.55359,126.956739,ediya,이디야 애오개역점
37.5637561,126.9084211,ediya,이디야 마포점
37.5551188,126.936835,ediya,이디야 신촌로터리점
37.5497587,126.9543612,ediya,이디야 마포경찰서점
37.5615164,126.9194136,ediya,이디야 성산중앙점
37.5220241,126.8429393,ediya,이디야 강서초교점
37.5764888,126.8307466,ediya,이디야 마곡중앙점
37.5665739,126.8413981,ediya,이디야 양천향교역점
37.533212,126.9022778,ediya,이디야 당산역점
37.5263715,126.8962283,ediya,이디야 영등포시장점
37.4911636,126.9243284,ediya,이디야 보라매점
37.4702988,126.9390781,ediya,이디야 녹두거리점
37.4789698,126.9577375,ediya,이디야 봉천중앙점
37.4784063,126.9516133,ediya,이디야 관악구청점
37.4934333,127.0170511,ediya,이디야 교대역점
37.5002446,127.0428592,ediya,이디야 역삼중앙점
37.5608719,126.9933221,hollys,할리스 충무로역점
37.5298245,126.9645796,hollys,할리스 용산아이파크몰영풍문고점
37.5784186,126.9099561,hollys,할리스 커피북가좌점
37.4777962,127.0066081,hollys,할리스 방배점
37.484235,127.016054,hollys,할리스 남부터미널
37.4967641,126.898757,hollys,할리스 대림역점
37.5354852,127.0954867,hollys,할리스 테크노마트점
37.5116828,127.059151,hollys,할리스 코엑스점
37.5586383,126.9662663,hollys,할리스 충정래미안
37.5060731,126.9387937,hollys,할리스 장승배기역점
37.4839872,126.9815426,hollys,할리스 이수역점
37.5589515,126.9451442,hollys,할리스 이대점
37.561949,127.038485,hollys,할리스 왕십리역점
37.5054942,127.006719,hollys,할리스 영동선점
37.553932,127.01041,hollys,할리스 약수역점
37.4626176,126.9383251,hollys,할리스 신림사거리점
37.4693165,126.9377011,hollys,할리스 신림고시촌점
37.677881,127.055293,hollys,할리스 수락산역점
35.8106824,126.4162652,hollys,할리스 선유도역점
37.4904845,127.0056469,hollys,할리스 서초마제스타시티점
37.5675623,126.9709424,hollys,할리스 서대문농협생명빌딩점
37.5002273,126.9185269,hollys,할리스 보라매역점
37.5405406,127.1249004,hollys,할리스 베네시티점
37.4800015,126.9964858,hollys,할리스 백석예술대학교점
37.6295959,127.0243076,hollys,할리스 미아역점
37.4881914,127.1335702,hollys,할리스 문정점
37.582634,126.950134,hollys,할리스 무악재역점
37.598983,127.0975,hollys,할리스 망우점
37.5594439,126.8342748,hollys,할리스 마곡퀸즈파크나인점
37.5764888,126.8307466,hollys,할리스 마곡나인스퀘어점
37.5105213,127.0200674,hollys,할리스 논현역점
37.514082,126.941687,hollys,할리스 노량진역점
37.481794,126.9145059,hollys,할리스 난곡사거리점
37.5476655,127.1430989,hollys,할리스 굽은다리점
37.484155,126.898868,hollys,할리스 구로점
37.486087,126.9037903,hollys,할리스 구로디지털뉴스테이점
37.4954031,126.887369,hollys,할리스 구로거리공원점
37.5156938,127.1054566,hollys,할리스 교통회관점
37.4831709,127.0122203,hollys,할리스 교대역점
37.5135304,127.0315341,hollys,할리스 강남대로논현점
37.4942061,127.1225901,hollys,할리스 가락시장역점
37.5394575,127.1269558,hollys,할리스 천호로데오점
37.654527,127.060551,hollys,할리스 노원역점
37.67026,127.079011,hollys,할리스 당고개역점
37.5190301,126.8536699,hollys,할리스 신정네거리점
37.4954031,126.887369,hollys,할리스 구로디지털점
37.496208,127.052883,hollys,할리스 한티역점
37.5596964,126.9854104,hollys,할리스 명동퍼시픽호텔점
37.5405623,127.0960369,hollys,할리스 광장점
37.5448436,127.103067,hollys,할리스 광나루역점
37.5604714,127.1704853,hollys,할리스 고덕리엔파크점
37.5405119,127.0695447,hollys,할리스 건대일감호수점
37.5927823,127.0178816,hollys,할리스 돈암점
37.5926646,126.9205206,hollys,할리스 응암점
37.5562157,126.9223613,hollys,할리스 홍대입구역점
37.5485297,126.9133631,hollys,할리스 합정역점
37.5596479,127.0439633,hollys,할리스 한양대병원점
37.4782412,127.0445766,hollys,할리스 포이사거리점
37.6185882,127.0775513,hollys,할리스 태능입구역점
37.5199308,127.0552689,hollys,할리스 청담삼성로점
37.5069041,126.958262,hollys,할리스 중앙대점
37.5729503,126.9793579,hollys,할리스 종로5가점
37.5221809,126.9199484,hollys,할리스 전경련회관점
37.566045,126.9933297,hollys,할리스 을지로입구점
37.4901258,126.8385254,hollys,할리스 오류동역점
37.5045703,127.0494465,hollys,할리스 역삼테헤란점
37.4999072,127.0373932,hollys,할리스 역삼스타점
37.5585997,126.9370634,hollys,할리스 신촌점
37.4859049,126.9291988,hollys,할리스 신림점
37.573135,126.9742155,hollys,할리스 센터포인트점
37.5182069,127.0226773,hollys,할리스 세로수길점
37.5802046,126.9234451,hollys,할리스 서울명지대점
37.4565095,126.9500385,hollys,할리스 서울대예술문화점
37.5792419,126.9991633,hollys,할리스 서울대병원점
37.4932234,126.9244612,hollys,할리스 보라매병원점
37.5100068,127.1273852,hollys,할리스 방이역점
37.5282135,126.8749471,hollys,할리스 목동점
37.5270381,126.870737,hollys,할리스 목동예술인회관점
37.5567987,126.9312862,hollys,할리스 동교점
37.5096517,127.0593385,hollys,할리스 도심공항점2
37.5645243,126.9765578,hollys,할리스 덕수궁점
37.5095834,126.9246348,hollys,할리스 대방역점
37.5837402,127.0011129,hollys,할리스 대명거리점
37.6563696,127.0625662,hollys,할리스 노원문화의거리점
37.558664,126.8032714,hollys,할리스 김포공항점
37.6111396,126.9169368,hollys,할리스 구산역점
37.5011414,126.8625002,hollys,할리스 고척스카이돔점
37.557774,127.1639117,hollys,할리스 고덕그라시움후문점
37.5870416,127.0265402,hollys,할리스 고대안암병원점
37.5724755,126.8070694,hollys,할리스 개화산점
37.4984896,127.0520385,hollys,할리스 강남우리라운지점
37.4987334,127.0278077,hollys,할리스 강남역점
37.5682757,126.9756694,hollys,할리스 광화문점
37.5740743,126.919318,hollys,할리스 가재울점
37.5660346,126.9653041,hollys,할리스 서대문역점
37.556904,126.8642901,hollys,할리스 가양점
37.589756,127.057977,megacoffee,메가커피 회기역점
37.5146058,126.9135045,megacoffee,메가커피 해군회관사거리점
37.6520293,127.0467461,megacoffee,메가커피 창동이마트점
37.6551483,127.044026,megacoffee,메가커피 창동어울림점
37.6136975,127.077514,megacoffee,메가커피 중랑묵동점
37.6601413,127.074249,megacoffee,메가커피 중계본동점
37.5154133,126.9071288,megacoffee,메가커피 영등포역남부점
37.5295808,126.9326803,megacoffee,메가커피 여의도역점
37.6522545,127.0304855,megacoffee,메가커피 쌍문역점
37.4977519,126.9277332,megacoffee,메가커피 신대방삼거리역점
37.545097,126.971987,megacoffee,메가커피 숙대입구역점
37.6760465,127.0549604,megacoffee,메가커피 수락중앙점
37.677881,127.055293,megacoffee,메가커피 수락산역점
37.6150815,127.0657675,megacoffee,메가커피 석계역점
37.577622,126.812826,megacoffee,메가커피 방화역점
37.6657326,127.0453592,megacoffee,메가커피 방학역점
37.5525002,126.8372193,megacoffee,메가커피 발산중앙점
37.5161216,126.9660695,megacoffee,메가커피 동부이촌점
37.6842605,127.0442545,megacoffee,메가커피 도봉중앙점
37.6773914,127.0446283,megacoffee,메가커피 도봉역점
37.5091155,126.89686,megacoffee,메가커피 도림점
37.5769696,127.0020331,megacoffee,메가커피 대학로중앙점
37.5558085,127.079084,megacoffee,메가커피 군자역점
37.5435747,127.098782,megacoffee,메가커피 광장점
37.561949,127.038485,megacoffee,메가커피 왕십리점
37.618812,126.920842,megacoffee,메가커피 연신내역점
37.586956,127.029698,megacoffee,메가커피 고대점
37.567841,127.0235206,megacoffee,메가커피 황학사거리점
37.5708733,127.0213284,megacoffee,메가커피 황학롯데캐슬점
37.622143,127.0863716,megacoffee,메가커피 화랑대역점
37.5342817,126.8382961,megacoffee,메가커피 화곡중앙시장점
37.5411313,126.8394361,megacoffee,메가커피 화곡역점
37.5381184,126.8471024,megacoffee,메가커피 화곡본동시장점
37.53387,126.8583432,megacoffee,메가커피 화곡남부시장점
37.5871322,126.9319759,megacoffee,메가커피 홍제홍은벽산점
37.5855112,126.9489831,megacoffee,메가커피 홍제역점
37.5561596,126.9242126,megacoffee,메가커피 홍대입구역점
37.4868995,126.9479255,megacoffee,메가커피 현대시장점
37.481088,126.8250625,megacoffee,메가커피 항동지식산업센터점
37.492794,126.9904426,megacoffee,메가커피 함지박사거리점
37.496208,127.052883,megacoffee,메가커피 한티역점
37.5894331,127.0080775,megacoffee,메가커피 한성대입구역점
37.6041779,127.0409997,megacoffee,메가커피 하월곡동점
37.5729641,127.0660885,megacoffee,메가커피 촬영소사거리점
37.557842,127.0126331,megacoffee,메가커피 청구역점
37.5691015,126.9786692,megacoffee,메가커피 청계천점
37.5439937,127.1256452,megacoffee,메가커피 천호역점
37.545257,127.1255025,megacoffee,메가커피 천호공원점
37.481122,126.8384,megacoffee,메가커피 천왕이펜하우스점
37.5597691,126.9387479,megacoffee,메가커피 창천점
37.6436098,127.039128,megacoffee,메가커피 창동대우점
37.6024242,127.0795901,megacoffee,메가커피 중화역점
37.594034,127.075565,megacoffee,메가커피 중랑역점
37.5626197,127.0853672,megacoffee,메가커피 중곡중앙점
37.6400147,127.0642892,megacoffee,메가커피 중계브라운스톤점
37.6032257,127.0322132,megacoffee,메가커피 종암사거리점
37.572312,126.9826356,megacoffee,메가커피 종로공평점
37.5703709,126.9910053,megacoffee,메가커피 종로3가역점
37.570176,126.983197,megacoffee,메가커피 종각역점
37.599785,127.0193858,megacoffee,메가커피 정릉아리랑점
37.6032405,127.0182023,megacoffee,메가커피 정릉뉴타운점
37.5773682,127.057767,megacoffee,메가커피 전농동사거리점
37.6156087,127.0507954,megacoffee,메가커피 장위점
37.572295,127.0748317,megacoffee,메가커피 장안동사거리점
37.5128988,127.0829932,megacoffee,메가커피 잠실장미점
37.5358496,127.0826957,megacoffee,메가커피 자양시장점
37.486491,126.981876,megacoffee,메가커피 이수역점
37.6826382,127.0481066,megacoffee,메가커피 이마트에브리데이 도봉점
37.5578623,126.9459631,megacoffee,메가커피 이대점
37.557948,126.8366528,megacoffee,메가커피 이대서울병원점
37.5999023,126.9203808,megacoffee,메가커피 응암이마트점
37.5652257,126.9834385,megacoffee,메가커피 을지로입구역점
37.651909,127.0775879,megacoffee,메가커피 은행사거리점
37.6026957,126.9291119,megacoffee,메가커피 은평신사점
37.6026957,126.9291119,megacoffee,메가커피 은평신사고개점
37.6026957,126.9291119,megacoffee,메가커피 은평뉴타운점
37.6041779,127.0409997,megacoffee,메가커피 월곡이마트점
37.6271512,127.0791017,megacoffee,메가커피 원자력병원점
37.6060836,127.1141266,megacoffee,메가커피 우림시장점
37.5952189,127.0624141,megacoffee,메가커피 외대앞역점
37.561949,127.038485,megacoffee,메가커피 왕십리렉스점
37.525401,127.1259345,megacoffee,메가커피 올림픽공원북문점
37.4921505,126.8236345,megacoffee,메가커피 온수역점
37.5250882,126.8727111,megacoffee,메가커피 오목교역점
37.5229444,126.8738458,megacoffee,메가커피 오목교 중앙점
37.5154133,126.9071288,megacoffee,메가커피 영등포역점
37.5472055,126.8748507,megacoffee,메가커피 염창역점
37.5738942,126.935254,megacoffee,메가커피 연희점
37.565784,126.938572,megacoffee,메가커피 연세대공학원점
37.602314,126.9161395,megacoffee,메가커피 역촌중앙점
37.526799,126.9270935,megacoffee,메가커피 여의도파크원점
37.5677998,126.8404781,megacoffee,메가커피 양천향교역점
37.5547704,127.0109976,megacoffee,메가커피 약수역점
37.531684,127.0302926,megacoffee,메가커피 압구정역점
37.5491785,127.1293441,megacoffee,메가커피 암사브라운스톤점
37.6522545,127.0304855,megacoffee,메가커피 쌍문점
37.4998948,126.9112817,megacoffee,메가커피 신풍역점
37.5130742,126.8307013,megacoffee,메가커피 신정이펜하우스점
37.5244852,126.8536023,megacoffee,메가커피 신정역점
37.5198838,126.8526862,megacoffee,메가커피 신정네거리점
37.5936712,126.9177913,megacoffee,메가커피 신응암시장점
37.5358414,126.8283183,megacoffee,메가커피 신월사거리점
37.53775,126.8725827,megacoffee,메가커피 신목점
37.4704112,126.940752,megacoffee,메가커피 신림프라임법학원점
37.4626176,126.9383251,megacoffee,메가커피 신림역점
37.4626176,126.9383251,megacoffee,메가커피 신림역사거리점
37.4816274,126.9152003,megacoffee,메가커피 신림난곡점
37.5059295,126.8886188,megacoffee,메가커피 신도림태영타운점
37.5088099,126.8912061,megacoffee,메가커피 신도림크라운빌점
37.5077345,126.8805914,megacoffee,메가커피 신도림역점
37.486699,126.9133322,megacoffee,메가커피 신대방역점
37.5062485,126.9139521,megacoffee,메가커피 신길힐스테이트점
37.5187947,126.842583,megacoffee,메가커피 신곡시장점
37.3798877,126.8031025,megacoffee,메가커피 시흥한울중점
37.3798877,126.8031025,megacoffee,메가커피 시흥중앙점
37.4539931,126.9004031,megacoffee,메가커피 시흥사거리점
37.6341571,127.0230278,megacoffee,메가커피 수유사거리점
37.5795913,126.89873,megacoffee,메가커피 수색자이점
37.4790482,127.1299016,megacoffee,메가커피 송파파인타운점
37.5145437,127.1065971,megacoffee,메가커피 송파역점
37.5101906,127.1117129,megacoffee,메가커피 송파나루역점
37.5912999,127.0221068,megacoffee,메가커피 성신여대점
37.5446009,127.0568847,megacoffee,메가커피 성수역점
37.589116,127.0182146,megacoffee,메가커피 성북구청점
37.5829776,126.9987726,megacoffee,메가커피 성균관대입구점
37.5032246,127.0510085,megacoffee,메가커피 선릉점
37.5097431,127.1030184,megacoffee,메가커피 석촌호수점
37.503517,127.1035697,megacoffee,메가커피 석촌점
37.4837121,127.0324112,megacoffee,메가커피 서초우면점
37.5866169,127.0977437,megacoffee,메가커피 서일대점
37.566535,126.9779692,megacoffee,메가커피 서울역점
37.566535,126.9779692,megacoffee,메가커피 서울시청점
37.5838657,127.0587771,megacoffee,메가커피 서울시립대점
37.55109,126.9616037,megacoffee,메가커피 서울만리점
37.4799586,126.9568599,megacoffee,메가커피 서울대입구점
37.4826799,126.9532107,megacoffee,메가커피 서울대입구역점
37.5457314,126.9540836,megacoffee,메가커피 서울공덕초교점
37.5327384,127.1134887,megacoffee,메가커피 서울풍납점
37.5295205,126.9212475,megacoffee,메가커피 서여의도점
37.5524143,127.1707655,megacoffee,메가커피 상일고덕점
37.505331,126.9417528,megacoffee,메가커피 상도해링턴플레이스점
37.6600958,127.0744074,megacoffee,메가커피 상계역점
37.6644859,127.0665604,megacoffee,메가커피 상계보람점
37.6485082,127.0631429,megacoffee,메가커피 상계백병원점
37.5039005,127.0885484,megacoffee,메가커피 삼전역점
37.5878949,127.0653215,megacoffee,메가커피 삼육서울병원점
37.6201772,127.0164719,megacoffee,메가커피 삼양점
37.621341,127.020507,megacoffee,메가커피 삼양사거리점
37.4803643,126.9821955,megacoffee,메가커피 사당방배점
37.5800329,127.0882609,megacoffee,메가커피 사가정역점
37.5784186,126.9099561,megacoffee,메가커피 북가좌점
37.6168565,127.0913817,megacoffee,메가커피 봉화산역점
37.4819678,126.943256,megacoffee,메가커피 봉천역점
37.4863102,126.9395618,megacoffee,메가커피 봉일시장점
37.4912431,126.9240825,megacoffee,메가커피 보라매타운점
37.4951092,126.9116485,megacoffee,메가커피 보라매점
37.4951092,126.9116485,megacoffee,메가커피 보라매역점
37.5091495,126.9110082,megacoffee,메가커피 보라매공원점
37.5777773,127.0684557,megacoffee,메가커피 배봉사거리점
37.5694218,126.8129911,megacoffee,메가커피 방화중앙점
37.5594039,126.8389535,megacoffee,메가커피 발산역점
37.6083313,127.0287845,megacoffee,메가커피 미아현대점
37.6301378,127.0237001,megacoffee,메가커피 미아수유시장점
37.6129567,127.0339613,megacoffee,메가커피 미아방천시장점
37.4829474,127.1288151,megacoffee,메가커피 문정중앙점
37.4904865,127.126605,megacoffee,메가커피 문정아이파크점
37.4889349,127.121524,megacoffee,메가커피 문정로데오
37.5120122,126.8969234,megacoffee,메가커피 문래SKV1센터점
37.5143434,126.8996479,megacoffee,메가커피 문래에이스하이테크점
37.5370192,126.8735297,megacoffee,메가커피 목동파리공원점
37.528938,126.8752298,megacoffee,메가커피 목동파라곤점
37.5413694,126.8753414,megacoffee,메가커피 목동우성점
37.5383413,126.8674605,megacoffee,메가커피 목동시장점
37.5370192,126.8735297,megacoffee,메가커피 목동사거리점
37.5846465,126.9251874,megacoffee,메가커피 명지전문대점
37.5778679,126.921451,megacoffee,메가커피 명지대점
37.55131,127.144014,megacoffee,메가커피 명일역점
37.5848258,127.080134,megacoffee,메가커피 면목중앙점
37.5885907,127.0895945,megacoffee,메가커피 면목역점
37.5885907,127.0895945,megacoffee,메가커피 면목면동초점
37.613797,127.0775029,megacoffee,메가커피 먹골역점
37.5028836,126.8448882,megacoffee,메가커피 구로매봉초점
37.5535996,126.9059535,megacoffee,메가커피 망원망리단길점
37.598603,127.092882,megacoffee,메가커피 망우역점
37.5425992,126.9440456,megacoffee,메가커피 마포용강점
37.5637561,126.9084211,megacoffee,메가커피 마포시민공원점
37.494372,127.1517206,megacoffee,메가커피 마천역점
37.6658135,127.0569853,megacoffee,메가커피 마들역점
37.5735074,126.8285405,megacoffee,메가커피 마곡중앙점
37.4996254,127.0277961,megacoffee,메가커피 마곡점
37.5594177,126.8668899,megacoffee,메가커피 마곡유림점
37.5589522,126.8288434,megacoffee,메가커피 마곡역점
37.490771,127.0752388,megacoffee,메가커피 디에이치자이개포점
37.558653,126.8532512,megacoffee,메가커피 등촌성당점
37.527575,127.1359781,megacoffee,메가커피 둔촌동역점
37.5307575,127.1443173,megacoffee,메가커피 둔촌고사거리점
37.4833686,126.9747103,megacoffee,메가커피 동작남성점
37.587926,127.0037323,megacoffee,메가커피 동소문점
37.5706612,127.0072579,megacoffee,메가커피 동대문종합시장점
37.5743682,127.0400189,megacoffee,메가커피 동대문점
37.569424,127.0132438,megacoffee,메가커피 동대문동평화점
37.618397,126.933056,megacoffee,메가커피 독바위역점
37.4707026,126.9339908,megacoffee,메가커피 대학점
37.4994914,127.0610527,megacoffee,메가커피 대치학원가점
37.4938946,127.0629079,megacoffee,메가커피 대치역점
37.5318721,126.9031482,megacoffee,메가커피 당산중앙점
37.534898,126.8992943,megacoffee,메가커피 당산역점
37.4896033,126.9280593,megacoffee,메가커피 당곡역점
37.5642881,127.0537683,megacoffee,메가커피 답십리로데오점
37.4988259,126.9904937,megacoffee,메가커피 논현역점
37.5093526,127.0388621,megacoffee,메가커피 논현아크로힐스점
37.5556203,127.0247986,megacoffee,메가커피 논골사거리점
37.6013733,126.9319284,megacoffee,메가커피 녹번점
37.6541917,127.056793,megacoffee,메가커피 노원중앙점
37.6541917,127.056793,megacoffee,메가커피 노원을지병원점
37.654527,127.060551,megacoffee,메가커피 노원역점
37.6541917,127.056793,megacoffee,메가커피 노원로데오점
37.4885326,126.8906507,megacoffee,메가커피 남구로점
37.4778688,126.9154917,megacoffee,메가커피 난곡우체국점
37.477909,126.9620089,megacoffee,메가커피 낙성대역점
37.5317675,126.8467055,megacoffee,메가커피 까치산역점
37.5317675,126.8467055,megacoffee,메가커피 까치산시장점
37.6073126,127.023926,megacoffee,메가커피 길음뉴타운점
37.5368082,127.1392925,megacoffee,메가커피 길동역점
37.5481551,127.0191177,megacoffee,메가커피 금호역점
37.5480101,127.0257709,megacoffee,메가커피 금호사거리점
37.4518527,126.9020358,megacoffee,메가커피 금천롯데캐슬
37.4665457,126.901952,megacoffee,메가커피 금천독산점
37.4687595,126.9021125,megacoffee,메가커피 금천독산4동점
37.4518527,126.9020358,megacoffee,메가커피 금천가산점
37.5451784,127.1431785,megacoffee,메가커피 굽은다리역점
37.496261,126.86959,megacoffee,메가커피 구일역점
37.5397202,127.0866272,megacoffee,메가커피 구의역점
37.6111396,126.9169368,megacoffee,메가커피 구산역점
36.3680837,127.3445025,megacoffee,메가커피 구로궁동점
37.5011414,126.8625002,megacoffee,메가커피 구로고척점
37.5032071,126.8618993,megacoffee,메가커피 구로고척시장점
37.4914131,127.0137673,megacoffee,메가커피 교대역점
37.5482267,126.9297462,megacoffee,메가커피 광흥창역점
37.5701527,126.9993404,megacoffee,메가커피 광장시장 남2문점
37.6194277,127.05982,megacoffee,메가커피 광운대역점
37.54322,126.951576,megacoffee,메가커피 공덕점
37.5060583,127.0047804,megacoffee,메가커피 반포고투몰점
37.555051,127.15411,megacoffee,메가커피 고덕역점
37.5549124,127.1342742,megacoffee,메가커피 고덕그라시움점
37.5929616,127.052829,megacoffee,메가커피 경희대점
37.5407625,127.0793428,megacoffee,메가커피 건대학생회관점
37.4988429,127.144959,megacoffee,메가커피 거여역점
37.5019237,126.8479012,megacoffee,메가커피 개봉푸르지오점
37.4918629,126.8562632,megacoffee,메가커피 개봉점
37.4970808,126.8561712,megacoffee,메가커피 개봉사거리점
37.4954995,126.8594363,megacoffee,메가커피 개봉북부역
37.4939979,126.8586348,megacoffee,메가커피 개봉남부역점
37.5589559,127.1724786,megacoffee,메가커피 강일2지구
37.5653152,126.8480309,megacoffee,메가커피 강서한강자이타워점
37.556904,126.8642901,megacoffee,메가커피 강서우림블루나인점
37.5695531,126.8249817,megacoffee,메가커피 강서세무서점
37.5608434,126.8546005,megacoffee,메가커피 강서등촌점
37.5509786,126.8495382,megacoffee,메가커피 강서구청점
37.6396099,127.0256575,megacoffee,메가커피 강북시장점
37.535489,127.134836,megacoffee,메가커피 강동역점
37.5301251,127.123762,megacoffee,메가커피 강동구청점
37.5172363,127.0473248,megacoffee,메가커피 강남포이점
37.4692712,127.1073203,megacoffee,메가커피 강남세곡점
37.5695486,126.9149256,megacoffee,메가커피 가좌역점
37.5775116,126.9103925,megacoffee,메가커피 가재울북가좌초교점
37.573616,126.916407,megacoffee,메가커피 가재울뉴타운점
37.6412127,127.016581,megacoffee,메가커피 가오리역점
37.5648322,126.8342406,megacoffee,메가커피 가양초점
37.5648322,126.8342406,megacoffee,메가커피 가양중앙점
37.482461,126.8781192,megacoffee,메가커피 가산SK V1센터점
37.4827197,126.8781914,megacoffee,메가커피 가산에이스K1타워점
37.4803075,126.8841943,megacoffee,메가커피 가산리더스타워점
37.5788728,126.9865179,megacoffee,메가커피 안국역점
37.550148,127.127519,megacoffee,메가커피 암사역점
37.5648322,126.8342406,megacoffee,메가커피 가양역점
37.5558013,126.9092239,megacoffee,메가커피 망원역점
37.4954031,126.887369,megacoffee,메가커피 구로디지털단지역점
37.4872051,127.1195428,megacoffee,메가커피 문정테라타워2점
37.5650413,127.0836204,megacoffee,메가커피 중곡역점
37.6041779,127.0409997,megacoffee,메가커피 월곡두산점
37.5114305,127.0830262,megacoffee,메가커피 잠실새내역점
37.6059858,126.9157657,megacoffee,메가커피 역말사거리점
37.6409973,127.028428,megacoffee,메가커피 수유점
37.5610647,126.9822893,megacoffee,메가커피 명동중앙우체국점
37.5594375,127.1476045,megacoffee,메가커피 고덕래미안점
37.4961608,127.131049,megacoffee,메가커피 가락중앙점
37.658399,127.035268,megacoffee,메가커피 쌍문세라믹점
37.4789643,127.0609282,megacoffee,메가커피 개포동역점
37.564979,126.827427,megacoffee,메가커피 신방화역점
37.5252173,126.9255386,coffeebean,커피빈코리아 IFC MALL 3호점
37.557527,126.9244669,coffeebean,커피빈코리아 홍대역8번출구점
37.6511651,127.0764297,coffeebean,커피빈코리아 중계동은행사거리점
37.5295808,126.9326803,coffeebean,커피빈코리아 여의도SK증권빌딩점
37.5260686,127.0389925,coffeebean,커피빈코리아 압구정로데오점
37.4795693,126.9521709,coffeebean,커피빈코리아 서울대입구역점
37.5796165,126.8927623,coffeebean,커피빈코리아 상암SBS미디어센터점
37.5172363,127.0473248,coffeebean,커피빈코리아 삼성생명강남사옥점
37.5023197,127.024867,coffeebean,커피빈코리아 뉴교보타워옆점
37.654527,127.060551,coffeebean,커피빈코리아 노원역점
37.5923663,127.0526497,coffeebean,커피빈코리아 경희대점
37.5542421,126.8510561,coffeebean,커피빈코리아 강서그랜드아이파크점
37.5349372,127.0957088,coffeebean,커피빈코리아 강변테크노마트점
37.4956154,127.0282032,coffeebean,커피빈코리아 강남대로점
37.5245018,126.9255481,coffeebean,커피빈코리아 IFC MALL 2호점
37.5091322,127.0608511,coffeebean,커피빈코리아 CBTL파르나스몰점
37.5554518,126.9233085,coffeebean,커피빈코리아 홍대역점
37.58217,127.001893,coffeebean,커피빈코리아 혜화역점
37.583443,127.001877,coffeebean,커피빈코리아 혜화역1번출구점
37.5295808,126.9326803,coffeebean,커피빈코리아 현대자동차여의도점
37.5351932,127.1332123,coffeebean,커피빈코리아 현대자동차성내점
37.5876061,127.0071529,coffeebean,커피빈코리아 한성대입구역점
37.566045,126.9933297,coffeebean,커피빈코리아 하나은행을지로본점
37.5171327,126.9037826,coffeebean,커피빈코리아 타임스퀘어점
37.5617864,126.9910438,coffeebean,커피빈코리아 충무로극동빌딩점
37.5072931,127.0338546,coffeebean,커피빈코리아 차병원사거리점
37.570176,126.983197,coffeebean,커피빈코리아 종각역점
37.5926646,126.9205206,coffeebean,커피빈코리아 응암동점
37.566045,126.9933297,coffeebean,커피빈코리아 을지로입구역점
37.5384272,126.9654442,coffeebean,커피빈코리아 용산아이파크몰점
37.5960309,127.0602028,coffeebean,커피빈코리아 외대앞점
37.5157197,127.1322328,coffeebean,커피빈코리아 올림픽플라자점
37.524127,126.8762326,coffeebean,커피빈코리아 오목교역사거리점
37.5068485,127.0228557,coffeebean,커피빈코리아 영동점
37.5630488,126.9432618,coffeebean,커피빈코리아 연대동문회관점
37.5295808,126.9326803,coffeebean,커피빈코리아 여의도신영증권별관점
37.5306873,126.9250109,coffeebean,커피빈코리아 여의도순복음교회옆점
37.5295808,126.9326803,coffeebean,커피빈코리아 여의도교보증권카페점
37.5295808,126.9326803,coffeebean,커피빈코리아 여의도 34번지점
37.5716317,126.8385928,coffeebean,커피빈코리아 양천향교역점
37.4828794,127.0350219,coffeebean,커피빈코리아 양재스포타임점
37.5762989,126.9845774,coffeebean,커피빈코리아 안국역점
37.556292,126.9372365,coffeebean,커피빈코리아 신촌점
37.3798877,126.8031025,coffeebean,커피빈코리아 시흥홈플러스점
37.563621,126.977166,coffeebean,커피빈코리아 시청역7번출구점
37.5642851,126.9811637,coffeebean,커피빈코리아 소공동삼화빌딩점
37.4954141,127.0164028,coffeebean,커피빈코리아 서초지파이브점
37.4837121,127.0324112,coffeebean,커피빈코리아 서초부띠크모나코점
37.4874914,127.0322289,coffeebean,커피빈코리아 서초뱅뱅사거리점
37.4876872,127.0174271,coffeebean,커피빈코리아 서초동점
37.5696899,126.9724165,coffeebean,커피빈코리아 새문안로점
37.5481136,126.9231602,coffeebean,커피빈코리아 상수역점
37.5964105,127.0847782,coffeebean,커피빈코리아 상봉역점
37.5172363,127.0473248,coffeebean,커피빈코리아 삼성전자강남사옥점
37.507009,127.0586339,coffeebean,커피빈코리아 삼성루첸타워점
37.5017064,126.9872169,coffeebean,커피빈코리아 반포엘루체점
37.4786713,126.8864968,coffeebean,커피빈코리아 마리오아울렛점
37.50904,126.889424,coffeebean,커피빈코리아 디큐브시티점
37.5101935,127.0585824,coffeebean,커피빈코리아 도심공항타워점
37.5813717,127.0037067,coffeebean,커피빈코리아 대학로마로니에점
37.5054749,127.0260407,coffeebean,커피빈코리아 논현201 5번지점
37.4895029,126.9928287,coffeebean,커피빈코리아 내방역7번출구유중아트점
37.4855176,127.0155793,coffeebean,커피빈코리아 남부터미널역점
37.4780739,126.9615951,coffeebean,커피빈코리아 낙성대역점
37.4954031,126.887369,coffeebean,커피빈코리아 구로지밸리몰점
37.5849882,127.0295301,coffeebean,커피빈코리아 고대참살이길점
37.5866667,127.0294444,coffeebean,커피빈코리아 고대안암역점
37.498056,127.025833,coffeebean,커피빈코리아 강남역GT타워옆점
37.5172363,127.0473248,coffeebean,커피빈코리아 강남역12번출구점
37.5002656,127.0260219,coffeebean,커피빈코리아 강남에스점
37.5019704,127.026038,coffeebean,커피빈코리아 강남대로센터점
37.5796851,126.8927123,coffeebean,커피빈코리아 상암SBS프리즘타워점
37.550392,126.9722216,pascucci,파스쿠찌트 윈시티남산
37.5349372,127.0957088,pascucci,파스쿠찌 테크노마트점
37.5384272,126.9654442,pascucci,파스쿠찌 용산아이파크몰점
37.5295703,126.9680031,pascucci,파스쿠찌 용산더센트럴점
37.5611889,126.9388414,pascucci,파스쿠찌 연세세브란스1호점
37.5259791,126.9258273,pascucci,파스쿠찌 여의도영풍문고IFC점
37.530892,126.9210728,pascucci,파스쿠찌 서여의도점
37.4866561,127.0158867,pascucci,파스쿠찌 서초점
37.5241801,127.0473251,pascucci,파스쿠찌 청담사거리점
37.5697333,126.9893223,pascucci,파스쿠찌 종로2가점
37.5718609,127.071825,pascucci,파스쿠찌 장안사거리점
37.5105704,127.0803448,pascucci,파스쿠찌 잠실역점
37.5583938,126.8367857,pascucci,파스쿠찌 이대서울병원점
37.561949,127.038485,pascucci,파스쿠찌 왕십리역사
37.5272546,126.8956423,pascucci,파스쿠찌 영등포병원점
37.565784,126.938572,pascucci,파스쿠찌 연세우리라운지점
37.565784,126.938572,pascucci,파스쿠찌 연세심혈관병원점
37.5623371,126.9408692,pascucci,파스쿠찌 연세세브란스2호
37.5575085,126.9371524,pascucci,파스쿠찌 연세대점
37.514338,127.0193308,pascucci,파스쿠찌 신사역점
37.4626176,126.9383251,pascucci,파스쿠찌 신림역점
37.4881207,127.1029685,pascucci,파스쿠찌 수서점
37.5935225,127.0176206,pascucci,파스쿠찌 성신여대점
37.5060342,127.0503033,pascucci,파스쿠찌 선릉이노센스
37.5062457,127.1005545,pascucci,파스쿠찌 석촌호수점
37.566535,126.9779692,pascucci,파스쿠찌 서울시청점
37.4591861,126.9551526,pascucci,파스쿠찌 서울대점
37.4807107,126.9535624,pascucci,파스쿠찌 서울대입구역점
37.4591861,126.9551526,pascucci,파스쿠찌 서울대병원
37.4587299,126.9522524,pascucci,파스쿠찌 서울대관정도서관점
37.5791158,126.9367789,pascucci,파스쿠찌 서대문역점
37.5105294,127.0631988,pascucci,파스쿠찌 삼성역점
37.4888469,127.0309709,pascucci,파스쿠찌 뱅뱅사거리점
37.483115,127.123927,pascucci,파스쿠찌 문정법조단지점
37.5506785,126.9134813,pascucci,파스쿠찌 메세나폴리스점
37.5689316,127.0087977,pascucci,파스쿠찌 두타점
37.5677853,127.0140493,pascucci,파스쿠찌 동대문APM점
37.5317675,126.8467055,pascucci,파스쿠찌 까치산역점
37.6152464,126.7156325,pascucci,파스쿠찌 김포공항국내선점
37.4826527,127.0180446,pascucci,파스쿠찌 기쁨병원점
37.5599265,126.8405125,pascucci,파스쿠찌 강서NC백화점
37.5172363,127.0473248,pascucci,파스쿠찌 강남구청역점
37.5172363,127.0473248,pascucci,파스쿠찌 강남고속터미널점
37.5693535,126.9162393,pascucci,파스쿠찌 가재울점
37.4972922,126.9165608,pascucci,파스쿠찌 보라매공원점
37.654527,127.060551,pascucci,파스쿠찌 노원역점
37.5809354,127.0457841,baek,빽다방 청량리역점
37.6487497,127.0763296,baek,빽다방 중계은행사거리점
37.6144929,127.0002306,baek,빽다방 정릉점
37.5338436,126.9754758,baek,빽다방 용산국방부점
37.5263715,126.8962283,baek,빽다방 영등포신세계점
37.5256868,126.8968943,baek,빽다방 영등포구청역점
37.575326,127.0248495,baek,빽다방 신설동역1호점
37.4988726,126.9300136,baek,빽다방 신대방삼거리점
37.5518018,127.0736345,baek,빽다방 세종대후문점
35.8106824,126.4162652,baek,빽다방선유도역점
37.5798454,126.8887193,baek,빽다방 상암KGIT점
37.6700032,127.0423391,baek,빽다방 방학역점
37.5281527,126.8757457,baek,빽다방 목동41타워점
37.5623942,126.9818582,baek,빽다방 명동중앙우체국점
37.5555634,126.9082257,baek,빽다방 망원시장점
37.5295808,126.9326803,baek,빽다방 동여의도점
37.5365801,127.0849871,baek,빽다방 구의역점
37.5383015,127.0746261,baek,빽다방 건대동문회관점
37.535315,127.0933914,baek,빽다방 강변역점
37.6486098,127.0343291,baek,빽다방 쌍문역점
37.5115321,127.1138586,baek,빽다방 방이시장점
37.654527,127.060551,baek,빽다방 노원역우리은행점
37.655481,127.0625821,baek,빽다방 노원문화의거리점
37.5461514,127.1434817,baek,빽다방 굽은다리역점
37.636581,126.918833,baek,빽다방 구파발역점
37.5619185,126.826919,baek,빽다방 마곡역GMG점
37.5256409,126.9186176,baek,빽다방 KBS본관점
37.5483164,127.0674613,baek,빽다방 화양사거리점
37.5381184,126.8471024,baek,빽다방 화곡역점
37.5872962,126.946125,baek,빽다방 홍제삼거리점
40.8443598,-74.0051777,baek,빽다방 홍대입구점
37.5518097,126.921284,baek,빽다방 홍대거리점
37.5618974,127.0308534,baek,빽다방 행당무학점
37.4972051,127.0547028,baek,빽다방 한티역점
37.5571759,127.0454092,baek,빽다방 한양대점
37.6179085,127.0750345,baek,빽다방 태릉입구역점
37.486491,126.981876,baek,빽다방 총신대입구역점
37.4943867,126.8325917,baek,빽다방 천왕역점
37.6535857,127.050145,baek,빽다방 창동역점
37.6017083,127.0786012,baek,빽다방 중화역점
37.594904,127.075833,baek,빽다방 중랑역 동부시장점
37.6021121,127.0061045,baek,빽다방 정릉뉴타운점
37.6156087,127.0507954,baek,빽다방 장위뉴타운점
37.515194,127.0948475,baek,빽다방 잠실역지하도점
37.5338451,126.9918311,baek,빽다방 이태원점
37.598482,126.9140967,baek,빽다방 응암역점
37.5876303,126.9163774,baek,빽다방 응암대림시장점
37.6203054,126.9161104,baek,빽다방 은평초교점
37.6041779,127.0409997,baek,빽다방 월곡래미안점
37.5475334,126.8359917,baek,빽다방 우장산역점
37.5751278,127.0851145,baek,빽다방 용마산역점
37.5640647,127.0554067,baek,빽다방 용답로데오점
37.597108,127.0588498,baek,빽다방 외대역점
37.561949,127.038485,baek,빽다방 왕십리역점
37.5404369,127.0951999,baek,빽다방 올림픽북단점
37.4944,126.844551,baek,빽다방 오류동역남부점
37.5681791,126.9322133,baek,빽다방 연희삼거리점
37.618812,126.920842,baek,빽다방 연신내역점
37.4999072,127.0373932,baek,빽다방 역삼GS점
37.525606,126.886191,baek,빽다방 양평중흥S클래스점
37.469913,127.038396,baek,빽다방 양재시민의숲역
37.5556662,127.010807,baek,빽다방 약수역점
37.576556,126.985472,baek,빽다방 안국역점
37.658399,127.035268,baek,빽다방 쌍문세라믹점
37.5208002,126.8528758,baek,빽다방 신정네거리점
37.5316988,126.9654083,baek,빽다방 신용산해링턴점
37.4626176,126.9383251,baek,빽다방 신림역2호점
37.4711013,126.9375595,baek,빽다방 신림대학점
37.4816274,126.9152003,baek,빽다방 신림난곡점
37.4863069,126.9134733,baek,빽다방 신대방역점
37.5659562,127.0186987,baek,빽다방 신당역점
37.4952808,126.9554244,baek,빽다방 숭실대점
37.6386636,127.0270104,baek,빽다방 수유역점
37.6308048,127.0237356,baek,빽다방 수유시장점
37.677881,127.055293,baek,빽다방 수락산역점
37.5016284,127.1086253,baek,빽다방 송파사거리점
37.514624,127.108563,baek,빽다방 송파 방이점
37.561687,126.8098122,baek,빽다방 송정역점
37.5394428,127.0542534,baek,빽다방 성수역롯데캐슬점
37.5389889,127.0547093,baek,빽다방 성수뚝도점
37.5090479,127.0440555,baek,빽다방 선정릉역점
37.5030346,127.0504691,baek,빽다방 선릉중앙점
37.5062991,127.1082686,baek,빽다방 석촌역점
37.5023874,127.0969415,baek,빽다방 석촌고분역점
37.4913624,127.008348,baek,빽다방 서초역점
37.4565095,126.9500385,baek,빽다방 서울대메트로빌점
37.5791158,126.9367789,baek,빽다방 서대문경희궁점
37.5645,127.028872,baek,빽다방 상왕십리역점
37.5946937,127.0856632,baek,빽다방 상봉역점
37.5090671,126.9455197,baek,빽다방 상도e편한점
37.6194458,127.0210749,baek,빽다방 삼양동사거리점
37.627334,127.0379897,baek,빽다방 북서울꿈의숲점
37.6163947,127.0926039,baek,빽다방 봉화산역점
37.4825442,126.9422235,baek,빽다방 봉천역점
37.4917313,126.9251532,baek,빽다방 보라매타운점
37.5281537,126.9988215,baek,빽다방 보광점
37.5734199,126.8114578,baek,빽다방 방화사거리점
37.508559,127.12596,baek,빽다방 방이역 코오롱점
37.558683,126.837595,baek,빽다방 발산역플레이스점
37.5060583,127.0047804,baek,빽다방 반포고투몰점
37.5060582,127.0033885,baek,빽다방 반포고투몰2호점
37.6258469,127.0268455,baek,빽다방 미아역점
37.4859826,127.1197497,baek,빽다방 문정역점
37.5370192,126.8735297,baek,빽다방 목동파리공원점
37.5802046,126.9234451,baek,빽다방 명지대
37.5505993,127.1452377,baek,빽다방 명일역점
37.6121738,127.0782512,baek,빽다방 먹골역점
37.5597121,126.8253528,baek,빽다방 마곡역류마타워점
37.5619185,126.826919,baek,빽다방 마곡역로뎀타워점
37.5669356,126.8265611,baek,빽다방 마곡나루역북부점
37.5462843,127.0494976,baek,빽다방 뚝섬역점
37.5490542,126.8678586,baek,빽다방 등촌역점
37.558653,126.8532512,baek,빽다방 등촌성당점
37.5259147,127.1349952,baek,빽다방 둔촌동역점
37.5000326,126.8680013,baek,빽다방 동양미래대점
37.6005277,127.023636,baek,빽다방 돈암점
37.5996114,127.0134558,baek,빽다방 돈암아리랑점
37.4693273,126.8970414,baek,빽다방 독산롯데점
37.6687738,127.0470706,baek,빽다방 도봉구민회관점
37.493308,126.8980447,baek,빽다방 대림역점
37.657176,127.0622614,baek,빽다방 노원역북부점
37.5606465,126.9791915,baek,빽다방 남대문시장점
37.5317675,126.8467055,baek,빽다방 까치산역점
37.603245,127.024959,baek,빽다방 길음역점
37.5478489,127.0215265,baek,빽다방 금호금남시장점
37.4547138,126.9005358,baek,빽다방 금천시흥사거리점
37.6352875,126.919153,baek,빽다방 구파발역 미켈란점
37.496261,126.86959,baek,빽다방 구일역점
37.6104407,126.9166729,baek,빽다방 구산역점
37.4851543,126.8927301,baek,빽다방 구로이앤씨6차점
37.4954031,126.887369,baek,빽다방 구로디지털역점
37.6263625,127.0743473,baek,빽다방 공릉역점
37.5060582,127.0033885,baek,빽다방 고속터미널지하점
37.5060582,127.0033885,baek,빽다방 고속터미널역점
37.5761986,126.9740128,baek,빽다방 경복궁역점
37.4926974,127.1455368,baek,빽다방 거여역점
37.4938656,126.8581879,baek,빽다방 개봉역점
37.494698,126.858504,baek,빽다방 개봉역북부점
37.556904,126.8642901,baek,빽다방 강서블루나인점
37.548943,127.1403333,baek,빽다방 강동역헤르셔점
37.5301251,127.123762,baek,빽다방 강동구청점
37.5014628,127.0269512,baek,빽다방 강남역CGV점
37.4953323,127.0303725,baek,빽다방 강남역태극당점
37.5009412,127.0251143,baek,빽다방 강남역월드점
37.4806318,126.8805702,baek,빽다방 가산SKV1점
37.4789143,126.8860895,baek,빽다방 가산AP타워점
37.4760163,126.8917131,baek,빽다방 가산두산위브점
37.4813244,126.8837789,baek,빽다방 가산대륭점
37.4794491,126.8874768,baek,빽다방 가산그레이트점
37.4950134,127.1204127,baek,빽다방 가락시장역점
37.5377005,126.9652949,baek,빽다방 원효 용문시장점
37.570627,127.0706515,baek,빽다방 장안동 사거리점
37.6114005,126.929435,baek,빽다방 불광역점
37.491337,127.0303625,baek,빽다방 서초우성점
37.5242673,127.0326364,baek,빽다방 강남소망점
37.5555281,126.9308709,paulbassette,폴바셋 AK플라자홍대점
37.5384272,126.9654442,paulbassette,폴바셋 용산아이파크몰점
37.5169561,126.9035055,paulbassette,폴바셋 영등포타임스퀘어점
37.538851,127.124463,paulbassette,폴바셋 현대백화점 천호점
37.5212097,127.0343704,paulbassette,폴바셋 현대모터스튜디오 서울점
37.5039769,127.0065749,paulbassette,폴바셋 파미에스테이션점
37.5333054,127.0081606,paulbassette,폴바셋 커피스테이션
37.5256473,127.0457129,paulbassette,폴바셋 청담역점
37.5243742,126.9237996,paulbassette,폴바셋 여의도점
37.5243742,126.9237996,paulbassette,폴바셋 여의도국회대로점
37.5254728,126.9261671,paulbassette,폴바셋 여의도 IFC몰점
37.5609008,126.9809889,paulbassette,폴바셋 신세계 본점
37.4874685,127.1013245,paulbassette,폴바셋 수서역점
37.5630463,126.9751722,paulbassette,폴바셋 서소문점
37.5649903,126.981369,paulbassette,폴바셋 롯데본점
37.490277,126.9251766,paulbassette,폴바셋 롯데백화점관악점
37.6552101,127.0611517,paulbassette,폴바셋 롯데백화점 노원점
37.496941,127.05332,paulbassette,폴바셋 롯데백화점 강남점
37.6375688,126.9181915,paulbassette,폴바셋 롯데몰 은평점
37.5090403,126.8894242,paulbassette,폴바셋 디큐브시티점
37.5094252,127.0073446,paulbassette,폴바셋 뉴코아강남점
37.4802017,126.8951205,paulbassette,폴바셋 구로G타워점
37.4922173,126.8849478,paulbassette,폴바셋 고대구로병원점
37.556895,126.850927,paulbassette,폴바셋 강서부민병원점
37.549363,127.0818126,coffeenamu,커피나무 어린이대공원역점
37.4974656,126.9434391,coffeenamu,커피나무 신상도점
37.546475,126.9646916,coffeenamu,커피나무 숙명여대점
37.5925706,127.0152562,coffeenamu,커피나무 성신여대점
37.6612726,127.0726949,coffeenamu,커피나무 상계역점
37.4991589,126.9200458,coffeenamu,커피나무 보라매역점
37.5028687,126.9538133,coffeenamu,커피나무(본사)
37.654527,127.060551,coffeenamu,커피나무 노원역점
37.5546557,127.0777695,coffeenamu,커피나무 군자역점
37.5416595,127.0710428,coffeenamu,커피나무 건대역점
37.5600911,126.9955787,coffeenamu,커피나무 필동점
37.492794,126.9904426,coffeenamu,커피나무 함지박사거리점
37.5139138,127.0285214,coffeenamu,커피나무 학동역점
37.5050881,126.9571012,coffeenamu,커피나무 중앙대정문점
37.5545647,127.0102217,coffeenamu,커피나무 약수역점
37.494673,126.9584274,coffeenamu,커피나무 숭실대점
37.6150815,127.0657675,coffeenamu,커피나무 석계역점
37.493963,126.9863044,coffeenamu,커피나무 방배카페골목점
37.4825682,126.9951357,coffeenamu,커피나무 방배역점
37.4721797,126.9665798,coffeenamu,커피나무 낙성대점
37.4775485,126.9609681,coffeenamu,커피나무 낙성대역점
37.6334618,127.0276379,coffeenamu,커피나무 꽃향기
37.5392074,127.1461206,coffeenamu,커피나무 길동점
37.4904423,127.0139361,coffeenamu,커피나무 교대점
37.4518527,126.9020358,coffeenamu,커피나무 금천점
37.5729503,126.9793579,dalcom coffee,달콤커피 종로종각점
37.5137161,127.1051931,dalcom coffee,달콤커피 제2롯데월드몰 아쿠아리움 카페 디오션
37.4856274,126.9816752,dalcom coffee,달콤커피 이수역점
37.5594007,126.9817325,dalcom coffee,달콤커피 우리은행본점
37.4727443,127.0416656,dalcom coffee,달콤커피 양재근린공원점
37.5443376,127.0469275,dalcom coffee,달콤커피 성수트러스톤점
37.5950926,127.0518338,dalcom coffee,달콤커피 경희의료원점
37.593884,127.0513235,dalcom coffee,달콤커피 경희의료원 본관점
37.4990748,127.0470296,dalcom coffee,달콤커피 대치점
37.5263715,126.8962283,dalcom coffee,달콤커피 영등포로터리점
37.502366,127.0357759,dalcom coffee,달콤커피 역삼역점
37.526799,126.9270935,dalcom coffee,달콤커피 여의도파크원점
37.5273985,126.8637941,dalcom coffee,달콤커피 목동역점
37.5802046,126.9234451,dalcom coffee,달콤커피 명지대점
37.486491,126.981876,angelinus,엔제리너스GS 이수역D/I점
37.5263715,126.8962283,angelinus,엔제리너스커피 영등포점
37.5161375,126.9070966,angelinus,엔제리너스커피 롯데영등포역사점
37.4626176,126.9383251,angelinus,엔제리너스커피 신림역점
37.6113309,126.9285117,angelinus,엔제리너스커피 불광역점
37.5640921,126.9836835,angelinus,엔제리너스커피 명동점
37.5534841,127.1576468,angelinus,엔제리너스커피 강동경희대병원
37.4806318,126.8805702,angelinus,엔제리너스커피 가산SK V1점
37.4912195,127.4875607,angelinus,엔제리너스 롯데제과양평사옥점
37.516373,126.9077556,angelinus,엔제리너스 롯데시네마영등포점
37.5648322,126.8342406,angelinus,엔제리너스 가양아름다운아울렛점
37.580676,127.0476654,angelinus,엔제리너스 청량리롯데백화점식당가점
37.5620927,127.0151465,angelinus,엔제리너스 청구역점
37.5137161,127.1051931,angelinus,엔제리너스 잠실롯데월드몰 1층점
37.5070405,126.8899242,angelinus,엔제리너스 신도림테크노점
37.504487,127.048957,angelinus,엔제리너스 선릉골드로즈점
37.563235,126.803121,angelinus,엔제리너스 롯데컬쳐웍스롯데시네마 김포공항
37.538514,127.0731712,angelinus,엔제리너스 롯데시네마건대입구관
37.5608008,126.9783734,angelinus,엔제리너스 롯데손해보험점
37.5647202,126.9817016,angelinus,엔제리너스 롯데백소공식당가
37.5638744,126.8045383,angelinus,엔제리너스 롯데몰김포영풍문고점
37.5632603,126.8031088,angelinus,엔제리너스 롯데몰 김포공항2호점
37.5816024,126.9366741,angelinus,엔제리너스 동신병원점
37.470263,126.9358069,angelinus,엔제리너스 대학점
37.4848946,127.1166362,angelinus,엔제리너스 대전대서울한방병원점
37.5134581,126.943018,angelinus,엔제리너스 노량진점
37.562402,126.801289,angelinus,엔제리너스 김포공항역점
37.5587975,126.803233,angelinus,엔제리너스 김포공항1층점
37.4954031,126.887369,angelinus,엔제리너스 구로디지털역점
35.8555174,128.5523513,angelinus,엔제리너스 광장점
37.4999547,127.0259702,angelinus,엔제리너스 강남역점
37.4984433,127.030521,angelinus,엔제리너스 강남역사거리
37.5167731,126.9083567,angelinus,엔제리너스
37.638777,127.064737,tomntoms,탐앤탐스 하계점
37.5407625,127.0793428,tomntoms,탐앤탐스 탐스커버리건대점
37.6513868,127.0459049,tomntoms,탐앤탐스커피 창동점
37.4813667,126.8838356,tomntoms,탐앤탐스 가산디지털단지역점
37.648965,127.0433646,tomntoms,탐앤탐스 창동본점
37.6065602,127.0926519,tomntoms,탐앤탐스 중랑구청점
37.5366975,126.9685788,tomntoms,탐앤탐스 용산문배점
37.5276352,127.1208965,tomntoms,탐앤탐스 올림픽서린점
37.5183546,126.9052681,tomntoms,탐앤탐스 영등포시장역점
37.5389482,126.9476325,tomntoms,탐앤탐스 마포도화점
37.6876472,127.0426691,tomntoms,탐앤탐스 도봉산입구점
37.6687738,127.0470706,tomntoms,탐앤탐스 도봉구청점
37.6553676,127.0639688,tomntoms,탐앤탐스 티티클럽노원점
37.4844622,127.0144405,tomntoms,탐앤탐스 남부터미널역점
37.589756,127.057977,tomntoms,탐앤탐스 회기역점
37.5902974,127.0109965,tomntoms,탐앤탐스 한성대점
37.5783759,127.0272814,tomntoms,탐앤탐스 용두동아제약점
37.5407341,127.0704612,tomntoms,탐앤탐스 건대
37.5855112,126.9489831,tomntoms,탐앤탐스 홍제역점
37.4518527,126.9020358,tomntoms,탐앤탐스 탐스커버리 금천본점
37.5729503,126.9793579,tomntoms,탐앤탐스 커피종로5가점
37.570627,127.0706515,tomntoms,탐앤탐스 커피 장한평역점
37.5878733,126.9103763,tomntoms,탐앤탐스 탐스커버리 DMC점
37.5079306,126.9608895,tomntoms,탐앤탐스 중앙대점
37.5729503,126.9793579,tomntoms,탐앤탐스 종로본점
37.5684054,127.0687784,tomntoms,탐앤탐스 장안1호점
37.5114305,127.0830262,tomntoms,탐앤탐스 잠실새내역점
37.4936985,127.0865374,tomntoms,탐앤탐스 일원점
37.6000124,126.919243,tomntoms,탐앤탐스 응암점
37.565183,127.024985,tomntoms,탐앤탐스 왕십리센트라스점
37.5030681,127.0376905,tomntoms,탐앤탐스 역삼gs타워점
37.4999072,127.0373932,tomntoms,탐앤탐스 역삼르까프골프장점
37.4800957,127.0391034,tomntoms,탐앤탐스 양재위메스점
37.5556913,126.9379918,tomntoms,탐앤탐스 신촌로터리점
37.5093957,126.8877258,tomntoms,탐앤탐스 신도림테크노점
37.5838657,127.0587771,tomntoms,탐앤탐스 시립대로미디어점
37.5624639,126.9706122,tomntoms,탐앤탐스 순화동케이지점
37.5923379,127.0177983,tomntoms,탐앤탐스 성신여대점
37.5533697,126.9734981,tomntoms,탐앤탐스 서울역점
37.4808705,126.9523534,tomntoms,탐앤탐스 서울대입구점
37.4828684,127.0040924,tomntoms,탐앤탐스 서울고사거리점
37.5663899,126.9654438,tomntoms,탐앤탐스 서대문역점
37.4822492,126.9288784,tomntoms,탐앤탐스 삼모타워 신림역점
37.4767403,126.9833049,tomntoms,탐앤탐스 사당역점
37.5812038,127.0881673,tomntoms,탐앤탐스 사가정역점
37.4851331,127.1238462,tomntoms,탐앤탐스 문정로데오점
37.5583098,127.0343532,tomntoms,탐앤탐스 무학여고점
37.5330794,126.8639217,tomntoms,탐앤탐스 목동사거리점
37.5619185,126.826919,tomntoms,탐앤탐스 마곡 이너매스점
37.6511988,127.0161604,tomntoms,탐앤탐스 덕성여대점
37.4854976,126.9293503,tomntoms,탐앤탐스 더블유디호텔신림점(Tom N Toms WD호텔신림점)
37.5635073,126.9741644,tomntoms,탐앤탐스 대한항공서소문점
37.5831419,127.0034601,tomntoms,탐앤탐스 대학로2호점
37.4814196,126.9141956,tomntoms,탐앤탐스 난곡사거리점
37.555956,127.0792757,tomntoms,탐앤탐스 군자역점
37.5384843,127.0822938,tomntoms,탐앤탐스 광진화양점
37.4900434,127.1462058,tomntoms,탐앤탐스 거여점
37.5534508,126.8503712,tomntoms,탐앤탐스 강서구청점
37.5566667,126.8516667,tomntoms,탐앤탐스 강서구청사거리점
37.5019671,127.0244665,tomntoms,탐앤탐스 강남바로세움점
37.5384272,126.9654442,tomntoms,탐앤탐스 용산아이파크몰점
37.5936619,127.0760556,tomntoms,탐앤탐스 상봉메가박스점
37.5980547,127.0942959,tomntoms,탐앤탐스 망우점
37.5093957,126.8877258,tomntoms,탐앤탐스 신도림점
37.4855978,126.9140051,tomntoms,탐앤탐스 신대방역점
37.5251551,127.0255394,tomntoms,탐앤탐스 압구정점
37.6458568,127.0285789,cafevene,카페베네 한일병원점
37.5695361,127.0702938,cafevene,카페베네 장평점
37.5414839,127.0667394,cafevene,카페베네 건대2호점
37.5268885,126.8971516,cafevene,카페베네 영등포구청점
37.558248,127.1304539,cafevene,카페베네 암사점
37.5194823,126.8528168,cafevene,카페베네 신정네거리역점
37.5881171,127.0523231,cafevene,카페베네 청량리1호점
37.525117,127.0525368,cafevene,카페베네 청담영동점
37.511206,127.021728,cafevene,카페베네 아크로힐스점
37.564089,126.9389809,cafevene,카페베네 아라마크 종합관지점
37.564089,126.9389809,cafevene,카페베네 아라마크 제중관
37.5623371,126.9408692,cafevene,카페베네 아라마크 연세의료원ABMRC지점
37.621341,127.020507,cafevene,카페베네 삼양사거리점
37.5164031,127.1215351,cafevene,카페베네 방이동점
37.615101,127.0295557,cafevene,카페베네 미아사거리역점
37.5502209,127.1500409,cafevene,카페베네 명일역점
37.5525675,127.1544874,cafevene,카페베네 고덕역점
37.4931668,127.1459076,cafevene,카페베네 거여역점
37.5816175,127.0475179,cafevene,카페베네 청량리역점
37.4773564,126.8891438,gongcha,공차 현대아울렛 가산점
37.557757,126.943057,gongcha,공차 이대점
37.5221809,126.9199484,gongcha,공차 여의도전경련점
37.549363,127.0818126,gongcha,공차 어린이대공원역점
37.5715087,127.1037627,gongcha,공차 아차산역점
37.546475,126.9646916,gongcha,공차 숙명여대점
37.566535,126.9779692,gongcha,공차 서울타워점
37.55131,127.144014,gongcha,공차 명일역점
37.5158879,126.9075191,gongcha,공차 롯데영등포점
37.580676,127.0476654,gongcha,공차 롯데백화점청량리점
37.4945265,126.8962836,gongcha,공차 대림점
37.6108694,126.9972889,gongcha,공차 국민대점
37.6194277,127.05982,gongcha,공차 광운대점
37.5900117,127.0318586,gongcha,공차 고대안암병원점
37.5387654,127.0723018,gongcha,공차 건대로데오점
37.5643042,126.9844537,gongcha,공차 명동점
37.4929717,127.0134121,gongcha,공차 교대역점
37.5501349,126.9119077,gongcha,공차 합정교보문고점
37.5935535,127.0757802,gongcha,공차 중랑역점
37.565183,127.024985,gongcha,공차 왕십리센트라스점
37.4843223,126.9284536,gongcha,공차 신림역점
37.5800526,127.0879843,gongcha,공차 사가정역점
37.4510162,126.9014932,gongcha,공차 금천시흥점
37.5402484,127.0939341,gongcha,공차 구의점
37.49797,127.135085,gongcha,공차 개롱역점
37.4773244,126.8877548,gongcha,공차 W몰점
37.6097084,126.9288532,gongcha,공차 NC불광점
37.5102313,127.0069616,gongcha,공차 NC강남점
37.5667521,127.0101046,gongcha,공차 DDP
37.5406188,126.8376207,gongcha,공차 화곡역점
37.4779014,127.1244404,gongcha,공차 현대시티몰가든파이브점
37.5743682,127.0400189,gongcha,공차 현대아울렛 동대문점
37.5560608,126.9357968,gongcha,공차 현대신촌점
37.50904,126.889424,gongcha,공차 현대디큐브시티점
37.4977778,127.0523689,gongcha,공차 한티역점
37.5571759,127.0454092,gongcha,공차 한양대플라자점
37.597108,127.0588498,gongcha,공차 한국외대점
37.4852295,127.0369063,gongcha,공차 김포공항플레이보6
37.5628771,126.977058,gongcha,공차 태평로점
37.4838735,126.9302332,gongcha,공차 타임스트림점
37.5096517,127.0593385,gongcha,공차 코엑스도심공항점
37.5072315,126.9589066,gongcha,공차 중앙대점
37.649542,127.0763583,gongcha,공차 중계은행사거리점
37.5724959,127.0724089,gongcha,공차 장안동사거리점
37.5132541,127.1039366,gongcha,공차 잠실학원사거리점
37.4890175,127.0824833,gongcha,공차 일원역점
37.557948,126.8366528,gongcha,공차 이대서울병원점
37.5663459,126.9967756,gongcha,공차 을지로트윈타워점
37.5488317,126.8359851,gongcha,공차 우장산역점
37.524553,126.87505,gongcha,공차 오목교점
37.4839432,126.9301792,gongcha,공차 영풍문고신림점
37.5263715,126.8962283,gongcha,공차 영등포구청점
37.618812,126.920842,gongcha,공차 연신내점
37.500143,127.0363923,gongcha,공차 역삼GFC점
37.5245895,126.9267495,gongcha,공차 여의도역점
37.4772593,127.0375672,gongcha,공차 양재역점
37.4772593,127.0375672,gongcha,공차 양재본점
37.554347,127.011001,gongcha,공차 약수점
37.5275096,127.0386405,gongcha,공차 압구정로데오
37.5504224,127.127445,gongcha,공차 암사역점
37.6474337,127.0344022,gongcha,공차 쌍문역점
37.5199372,126.8532703,gongcha,공차 신정네거리역점
37.524336,127.0240069,gongcha,공차 신사세로수길점
37.5070431,126.8902185,gongcha,공차 신도림테크노마트
37.5667555,126.9797092,gongcha,공차 시청점
37.5599813,126.9752953,gongcha,공차 숭례문점
37.677881,127.055293,gongcha,공차 수락산역
37.4976866,127.1066825,gongcha,공차 송파헬리오시티
37.4814935,127.1240651,gongcha,공차 송파 파크하비오점
37.504049,127.0041592,gongcha,공차 센트럴시티점
37.5399389,127.0531674,gongcha,공차 성수 성원점
37.503142,127.0465531,gongcha,공차 선릉한신인터밸리점
37.5064928,127.1085026,gongcha,공차 석촌역점
37.5783489,126.9708586,gongcha,공차 서촌점
37.491337,127.0303625,gongcha,공차 서초우성점
37.4904845,127.0056469,gongcha,공차 서초마제스타시티점
37.566535,126.9779692,gongcha,공차 서울역점
37.566535,126.9779692,gongcha,공차 서울아산병원점
37.5572063,127.1700891,gongcha,공차 상일동역점
37.4749437,126.9813736,gongcha,공차 사당본점
37.4917313,126.9251532,gongcha,공차 보라매점
37.4917098,126.9253661,gongcha,공차 보라매공원점
37.5361941,126.877971,gongcha,공차 목동 파리공원점
37.5111158,127.098167,gongcha,공차 롯데월드 어드벤처점
37.6375819,126.9179643,gongcha,공차 롯데시네마 은평점
37.6145502,127.0305098,gongcha,공차 롯데미아점
37.5607309,126.9738974,gongcha,공차 대한상공회의소점
37.4987404,127.0613744,gongcha,공차 대치은마사거리점
37.6008456,126.9326779,gongcha,공차 녹번역점
37.5127891,126.9434743,gongcha,공차 노량진학원가점
37.4875268,126.9941918,gongcha,공차 내방역점
37.478189,126.9613651,gongcha,공차 낙성대역점
37.5632534,126.8031299,gongcha,공차 롯데백화점 김포공항점
37.6073126,127.023926,gongcha,공차 길음뉴타운점
37.4665457,126.901952,gongcha,공차 금천독산점
37.4761795,127.0495563,gongcha,공차 국악고점
37.4815733,126.8934683,gongcha,공차 구로디지털 2호점
37.4979658,127.0277166,gongcha,공차 강남역점
37.4928431,126.9086305,gongcha,공차 강남성심병원점
37.4956024,127.0319918,gongcha,공차 강남대성학원점
37.5017418,127.0047932,gongcha,공차 가톨릭서울성모병원점
37.573616,126.916407,gongcha,공차 가재울점
37.5174265,126.9046476,gongcha,공차 타임스퀘어점
37.5132541,127.1039366,gongcha,공차 잠실롯데몰점
37.5128888,127.0582678,gongcha,공차 강남메가박스점
37.5706922,126.9815134,gongcha,공차 종로그랑 서울점
37.5609444,126.9838435,gongcha,공차 명동역점
37.5657203,126.9676875,gongcha,공차 정동점
37.5896514,127.0568,gongcha,공차 회기점
37.6041779,127.0409997,gongcha,공차 하월곡점
37.6265118,127.0619079,gongcha,공차 월계점
37.5397538,126.9455409,gongcha,공차 마포역점
37.5684289,126.8273356,gongcha,공차 마곡나루점
37.5014577,126.8825362,gongcha,공차 NC신구로점
37.5273097,127.0309129,gongcha,공차 압구정역점
37.5409097,127.047615,fromheartcoffee,프롬하츠커피 지웰홈스점
37.5409097,127.047615,fromheartcoffee,프롬하츠커피 장안점
37.5409097,127.047615,fromheartcoffee,프롬하츠커피앤베이커리 용두점
37.5409097,127.047615,fromheartcoffee,프롬하츠커피앤베이커리 성동구청점
37.5798164,127.0184286,fromheartcoffee,프롬하츠커피 보문파크뷰자이
37.5689904,126.9836056,fromheartcoffee,프롬하츠커피 청계종각점
37.5409097,127.047615,fromheartcoffee,프롬하츠커피 종로점
37.5962907,126.9196864,fromheartcoffee,프롬하츠커피 응암점
37.5409097,127.047615,fromheartcoffee,프롬하츠커피 온조대왕문화센터점
37.5304125,126.864262,fromheartcoffee,프롬하츠커피 목동사거리점
37.5409097,127.047615,fromheartcoffee,프롬하츠커피 돈암초교점
37.5409097,127.047615,fromheartcoffee,프롬하츠커피 남산타운점
37.5409097,127.047615,fromheartcoffee,프롬하츠커피 서울숲푸르지오점
37.5518018,127.0736345,palgongtea,팔공티 세종대후문점
37.5645043,126.9653691,palgongtea,팔공티 서대문역점
37.4821818,126.8209777,palgongtea,팔공티 항동점
37.5162883,126.841753,palgongtea,팔공티 신월점
37.5480366,126.8345704,palgongtea,팔공티 강서점
37.558418,126.854838,palgongtea,팔공티 홈플러스 강서점
37.6504368,127.0777536,palgongtea,팔공티 은행사거리점
37.6265118,127.0619079,palgongtea,팔공티 월계점
37.5298245,126.9645796,palgongtea,팔공티 용산아이파크몰
37.5246,126.8743362,palgongtea,팔공티 양천구청점
37.5145437,127.1065971,palgongtea,팔공티 송파역점
37.5370192,126.8735297,palgongtea,팔공티 목동파리공원점
37.5307269,126.8422652,palgongtea,팔공티 마곡벨리오점
37.5709759,126.8208181,palgongtea,팔공티 롯데슈퍼방화점
37.469824,126.89589,palgongtea,팔공티 독산지식산업센터
37.4994914,127.0610527,palgongtea,팔공티 대치학원가점
37.4933099,127.0619031,palgongtea,팔공티 대치역점
36.3680837,127.3445025,palgongtea,팔공티 궁동점
37.6194277,127.05982,palgongtea,팔공티 광운대점
37.4734425,127.1069063,palgongtea,팔공티 강남율현점
37.5590229,126.9458709,palgongtea,팔공티 이대점
37.5533789,126.8707448,palgongtea,팔공티 염창점
37.5272032,127.144105,palgongtea,팔공티 둔촌점
37.5555874,127.1475975,palgongtea,팔공티 상일역점
37.5434537,127.0705034,palgongtea,팔공티 건대중문점
37.5988455,127.0949981,palgongtea,팔공티 상봉점
37.656095,127.0634219,palgongtea,팔공티 노원점
37.5546422,126.834636,palgongtea,팔공티 내발산점
37.3798877,126.8031025,palgongtea,팔공티 시흥점
37.5133386,126.9458849,palgongtea,팔공티 노량진점
37.5745352,127.0468858,topresso,토프레소 전농점
37.6507596,127.0777847,topresso,토프레소 은행사거리점
37.5333713,127.0933675,topresso,토프레소 동서울터미널점
37.5293645,126.9049895,topresso,토프레소 당산점
37.5439355,126.9528649,topresso,토프레소 공덕르네상스점
37.5070328,126.8595958,topresso,토프레소 고척푸르지오점
37.568658,126.9755866,topresso,토프레소 태평로점
37.4901886,126.9588927,topresso,토프레소 청림점
37.6144929,127.0002306,topresso,토프레소 정릉점
37.6042051,127.0332069,topresso,토프레소 월곡화랑점
37.5439099,127.0550862,topresso,토프레소 성수우림점
37.5791158,126.9367789,topresso,토프레소 서대문점
37.6630871,127.0732549,topresso,토프레소 상계역점
37.660566,127.073202,topresso,토프레소 상계3동점
